rank,lsoa_code,lsoa_name,la_name,composite_score,longitude,latitude,ptal_inv_normalised,ptal_inv_weight,dist_to_station_normalised,dist_to_station_weight,pop_density_normalised,pop_density_weight,bus_crowding_normalised,bus_crowding_weight,station_need_normalised,station_need_weight,employment_normalised,employment_weight,imd_normalised,imd_weight,is_top10_location
1,E01033941,"Brent 035C","",0.531200,-0.28490,51.55850,0.704500,0.166667,0.040800,0.000000,0.308100,0.227273,1.000000,0.181818,0.043200,0.151515,0.618300,0.121212,0.000000,0.151515,TRUE
2,E01035700,"Tower Hamlets 034A","",0.491200,0.00570,51.51260,0.961900,0.166667,0.013600,0.000000,0.660400,0.227273,0.000000,0.181818,0.000000,0.151515,0.877800,0.121212,0.000000,0.151515,TRUE
3,E01000789,"Bromley 032B","Bromley",0.479800,0.11930,51.37590,0.949000,0.166667,0.882100,0.000000,0.112200,0.227273,0.029400,0.181818,1.000000,0.151515,0.460900,0.121212,0.550300,0.151515,TRUE
4,E01034147,"Croydon 046A","",0.475500,-0.09870,51.37900,0.418000,0.166667,0.013400,0.000000,1.000000,0.227273,0.000000,0.181818,0.000000,0.151515,0.878400,0.121212,0.000000,0.151515,FALSE
5,E01034227,"Newham 042D","",0.461400,0.02760,51.50170,0.909900,0.166667,0.021000,0.000000,0.297900,0.227273,0.364200,0.181818,0.132800,0.151515,0.707700,0.121212,0.000000,0.151515,FALSE
6,E01035698,"Tower Hamlets 032F","",0.461300,-0.01830,51.49870,0.815400,0.166667,0.013000,0.000000,0.698900,0.227273,0.000000,0.181818,0.000000,0.151515,0.797400,0.121212,0.000000,0.151515,FALSE
7,E01035704,"Tower Hamlets 036C","",0.455500,-0.01480,51.49760,0.785500,0.166667,0.011200,0.000000,0.740700,0.227273,0.223500,0.181818,0.035200,0.151515,0.340400,0.121212,0.000000,0.151515,FALSE
8,E01004329,"Waltham Forest 028C","Waltham Forest",0.455200,0.01380,51.55570,0.956800,0.166667,0.060600,0.000000,0.134000,0.227273,0.454800,0.181818,0.337700,0.151515,0.656100,0.121212,0.342800,0.151515,TRUE
9,E01034203,"Newham 025E","",0.451200,0.04030,51.53120,0.782300,0.166667,0.038200,0.000000,0.248200,0.227273,0.519100,0.181818,0.073500,0.151515,0.747100,0.121212,0.000000,0.151515,FALSE
10,E01034178,"Greenwich 035E","",0.446000,-0.01600,51.48290,0.867900,0.166667,0.025300,0.000000,0.617400,0.227273,0.000000,0.181818,0.000000,0.151515,0.771200,0.121212,0.000000,0.151515,FALSE
11,E01035699,"Tower Hamlets 032G","",0.445500,-0.01970,51.49810,0.811500,0.166667,0.020500,0.000000,0.696000,0.227273,0.000000,0.181818,0.000000,0.151515,0.698000,0.121212,0.000000,0.151515,FALSE
12,E01035701,"Tower Hamlets 034B","",0.439300,0.00640,51.51220,0.977700,0.166667,0.012600,0.000000,0.462000,0.227273,0.000000,0.181818,0.000000,0.151515,0.864800,0.121212,0.000000,0.151515,FALSE
13,E01034230,"Newham 042G","",0.438300,0.02770,51.50030,0.928000,0.166667,0.024600,0.000000,0.253500,0.227273,0.177200,0.181818,0.095700,0.151515,0.931400,0.121212,0.000000,0.151515,FALSE
14,E01003244,"Lewisham 001A","Lewisham",0.435800,-0.03480,51.48850,0.946200,0.166667,0.069200,0.000000,0.245600,0.227273,0.151300,0.181818,0.405800,0.151515,0.561000,0.121212,0.430700,0.151515,TRUE
15,E01001719,"Hackney 007E","Hackney",0.434900,-0.09350,51.56230,0.866700,0.166667,0.059600,0.000000,0.222500,0.227273,0.325300,0.181818,0.159900,0.151515,0.621600,0.121212,0.535600,0.151515,TRUE
16,E01034393,"Lewisham 040B","",0.432800,-0.01220,51.46540,0.515800,0.166667,0.002000,0.000000,0.142900,0.227273,0.715400,0.181818,0.000800,0.151515,0.978600,0.121212,0.000000,0.151515,FALSE
17,E01034045,"Hounslow 031A","",0.427900,-0.30090,51.49060,0.903600,0.166667,0.084100,0.000000,0.243200,0.227273,0.168200,0.181818,0.197500,0.151515,0.797900,0.121212,0.000000,0.151515,FALSE
18,E01034388,"Lewisham 001G","",0.427000,-0.03600,51.49120,0.955300,0.166667,0.056000,0.000000,0.196800,0.227273,0.092500,0.181818,0.306500,0.151515,0.784500,0.121212,0.000000,0.151515,FALSE
19,E01035493,"Wandsworth 010K","",0.420300,-0.19550,51.45770,0.790000,0.166667,0.072900,0.000000,0.099900,0.227273,0.558500,0.181818,0.049400,0.151515,0.768700,0.121212,0.000000,0.151515,FALSE
20,E01033208,"Lambeth 004G","Lambeth",0.418700,-0.12570,51.48560,0.568300,0.166667,0.004100,0.000000,0.291500,0.227273,0.735800,0.181818,0.004600,0.151515,0.686200,0.121212,0.264500,0.151515,TRUE
21,E01000868,"Camden 015D","Camden",0.418400,-0.12810,51.54230,0.931100,0.166667,0.049400,0.000000,0.179400,0.227273,0.271100,0.181818,0.166300,0.151515,0.479900,0.121212,0.592900,0.151515,TRUE
22,E01003249,"Lewisham 001D","Lewisham",0.415900,-0.03220,51.49070,0.966300,0.166667,0.074500,0.000000,0.158600,0.227273,0.174900,0.181818,0.405900,0.151515,0.590200,0.121212,0.356400,0.151515,FALSE
23,E01002758,"Islington 001C","Islington",0.411600,-0.12640,51.57090,0.867400,0.166667,0.043100,0.000000,0.125000,0.227273,0.375200,0.181818,0.075700,0.151515,0.472700,0.121212,0.670500,0.151515,TRUE
24,E01003061,"Lambeth 011F","Lambeth",0.410800,-0.11520,51.46560,0.589300,0.166667,0.019500,0.000000,0.143900,0.227273,0.609600,0.181818,0.009500,0.151515,0.669300,0.121212,0.570500,0.151515,TRUE
25,E01001057,"Croydon 030E","Croydon",0.409700,-0.02060,51.34930,0.919700,0.166667,0.447000,0.000000,0.111500,0.227273,0.060300,0.181818,0.497100,0.151515,0.429300,0.121212,0.612300,0.151515,FALSE
26,E01001737,"Hackney 012B","Hackney",0.409400,-0.08730,51.55750,0.914600,0.166667,0.069500,0.000000,0.151600,0.227273,0.269000,0.181818,0.207600,0.151515,0.726600,0.121212,0.356800,0.151515,FALSE
27,E01001813,"Hackney 002E","Hackney",0.408600,-0.09540,51.57250,0.706800,0.166667,0.010200,0.000000,0.172100,0.227273,0.533000,0.181818,0.010400,0.151515,0.339000,0.121212,0.740200,0.151515,FALSE
28,E01001052,"Croydon 030B","Croydon",0.406600,-0.01780,51.35840,0.954500,0.166667,0.399900,0.000000,0.077400,0.227273,0.078000,0.181818,0.497100,0.151515,0.360800,0.121212,0.638200,0.151515,FALSE
29,E01001747,"Hackney 014B","Hackney",0.403400,-0.07540,51.55110,0.781300,0.166667,0.020500,0.000000,0.140600,0.227273,0.467500,0.181818,0.027800,0.151515,0.678100,0.121212,0.460900,0.151515,FALSE
30,E01034194,"Greenwich 041B","",0.403100,0.01320,51.49680,0.860800,0.166667,0.046100,0.000000,0.428800,0.227273,0.000000,0.181818,0.000000,0.151515,0.834300,0.121212,0.000000,0.151515,FALSE
31,E01003087,"Lambeth 031E","Lambeth",0.403000,-0.10900,51.42390,0.910300,0.166667,0.176600,0.000000,0.106400,0.227273,0.209100,0.181818,0.245400,0.151515,0.448100,0.121212,0.644000,0.151515,FALSE
32,E01034195,"Greenwich 041C","",0.402000,0.01250,51.49620,0.847300,0.166667,0.046300,0.000000,0.577900,0.227273,0.000000,0.181818,0.000000,0.151515,0.565100,0.121212,0.000000,0.151515,FALSE
33,E01001839,"Hackney 023C","Hackney",0.399800,-0.05440,51.54070,0.783100,0.166667,0.015500,0.000000,0.188500,0.227273,0.251300,0.181818,0.013700,0.151515,0.743100,0.121212,0.584500,0.151515,FALSE
34,E01035662,"Tower Hamlets 004H","",0.399300,-0.02150,51.53170,0.852300,0.166667,0.028400,0.000000,0.332300,0.227273,0.000000,0.181818,0.000000,0.151515,1.000000,0.121212,0.000000,0.151515,FALSE
35,E01035489,"Wandsworth 004I","",0.398500,-0.18470,51.46430,0.859200,0.166667,0.066700,0.000000,0.245500,0.227273,0.078300,0.181818,0.138800,0.151515,0.856900,0.121212,0.000000,0.151515,FALSE
36,E01004675,"Westminster 005B","Westminster",0.397800,-0.19730,51.52550,0.817200,0.166667,0.036700,0.000000,0.225100,0.227273,0.394100,0.181818,0.064600,0.151515,0.448600,0.121212,0.492700,0.151515,FALSE
37,E01034477,"Barking and Dagenham 019H","",0.397500,0.10930,51.52070,0.928900,0.166667,0.035100,0.000000,0.114400,0.227273,0.311800,0.181818,0.099900,0.151515,0.698100,0.121212,0.000000,0.151515,FALSE
38,E01000663,"Bromley 026C","Bromley",0.397400,0.06120,51.38690,0.957300,0.166667,0.628900,0.000000,0.044600,0.227273,0.147800,0.181818,0.652600,0.151515,0.534900,0.121212,0.244800,0.151515,FALSE
39,E01033699,"Hackney 030A","Hackney",0.396500,-0.07540,51.54830,0.737900,0.166667,0.000400,0.000000,0.128900,0.227273,0.374800,0.181818,0.001400,0.151515,0.823900,0.121212,0.501900,0.151515,FALSE
40,E01004665,"Westminster 024A","Westminster",0.394600,-0.14230,51.48690,0.891900,0.166667,0.039700,0.000000,0.262300,0.227273,0.272800,0.181818,0.093700,0.151515,0.325800,0.121212,0.548100,0.151515,FALSE
41,E01003179,"Lambeth 024E","Lambeth",0.394500,-0.11390,51.45150,0.889000,0.166667,0.083100,0.000000,0.190900,0.227273,0.188900,0.181818,0.199500,0.151515,0.567700,0.121212,0.459200,0.151515,FALSE
42,E01004332,"Waltham Forest 028F","Waltham Forest",0.394200,0.00790,51.55320,0.922800,0.166667,0.054600,0.000000,0.145300,0.227273,0.278900,0.181818,0.191800,0.151515,0.534100,0.121212,0.414900,0.151515,FALSE
43,E01035644,"Hackney 025I","",0.393700,-0.08790,51.53620,0.922000,0.166667,0.060400,0.000000,0.332400,0.227273,0.000000,0.181818,0.000000,0.151515,0.864800,0.121212,0.000000,0.151515,FALSE
44,E01034214,"Newham 038B","",0.393000,-0.00990,51.54780,0.873400,0.166667,0.015800,0.000000,0.383000,0.227273,0.000000,0.181818,0.000000,0.151515,0.831900,0.121212,0.000000,0.151515,FALSE
45,E01002082,"Haringey 013A","Haringey",0.392800,-0.08330,51.59630,0.935900,0.166667,0.064300,0.000000,0.062800,0.227273,0.099400,0.181818,0.107000,0.151515,0.303000,0.121212,1.000000,0.151515,FALSE
46,E01000599,"Brent 027D","Brent",0.391600,-0.26130,51.54000,0.842100,0.166667,0.031600,0.000000,0.185700,0.227273,0.143800,0.181818,0.070400,0.151515,0.437000,0.121212,0.787100,0.151515,FALSE
47,E01004494,"Wandsworth 018A","Wandsworth",0.391600,-0.18970,51.45010,0.932700,0.166667,0.086700,0.000000,0.126800,0.227273,0.190000,0.181818,0.264200,0.151515,0.759200,0.121212,0.269100,0.151515,FALSE
48,E01001080,"Croydon 036C","Croydon",0.391300,-0.01400,51.33850,0.925100,0.166667,0.521100,0.000000,0.057600,0.227273,0.122200,0.181818,0.320900,0.151515,0.316200,0.121212,0.758000,0.151515,FALSE
49,E01035642,"Hackney 025G","",0.391100,-0.07800,51.53730,0.839600,0.166667,0.013400,0.000000,0.281500,0.227273,0.163900,0.181818,0.036800,0.151515,0.763800,0.121212,0.000000,0.151515,FALSE
50,E01032743,"Ealing 010F","Ealing",0.391000,-0.37780,51.53000,0.920300,0.166667,0.144900,0.000000,0.205400,0.227273,0.095900,0.181818,0.334100,0.151515,0.511000,0.121212,0.402000,0.151515,FALSE
51,E01002842,"Kensington and Chelsea 021C","Kensington and Chelsea",0.390700,-0.17960,51.48080,0.863500,0.166667,0.041900,0.000000,0.482000,0.227273,0.000000,0.181818,0.000000,0.151515,0.229000,0.121212,0.722800,0.151515,FALSE
52,E01003503,"Newham 030D","Newham",0.390400,0.01180,51.51790,0.714400,0.166667,0.028000,0.000000,0.168700,0.227273,0.327800,0.181818,0.031500,0.151515,0.647900,0.121212,0.594400,0.151515,FALSE
53,E01001860,"Hammersmith and Fulham 006B","Hammersmith and Fulham",0.390000,-0.24050,51.50520,0.860400,0.166667,0.065900,0.000000,0.170400,0.227273,0.286000,0.181818,0.117200,0.151515,0.547200,0.121212,0.473800,0.151515,FALSE
54,E01034387,"Lewisham 001F","",0.389500,-0.03850,51.49170,0.905500,0.166667,0.043700,0.000000,0.318400,0.227273,0.000000,0.181818,0.000000,0.151515,0.884500,0.121212,0.000000,0.151515,FALSE
55,E01003051,"Lambeth 018C","Lambeth",0.389100,-0.10570,51.46280,0.816600,0.166667,0.038800,0.000000,0.098200,0.227273,0.321500,0.181818,0.043400,0.151515,0.686100,0.121212,0.544400,0.151515,FALSE
56,E01003583,"Newham 002D","Newham",0.388200,0.06060,51.54960,0.942400,0.166667,0.070500,0.000000,0.183800,0.227273,0.149800,0.181818,0.356100,0.151515,0.367800,0.121212,0.419500,0.151515,FALSE
57,E01000721,"Bromley 019C","Bromley",0.387800,0.12080,51.39220,0.961100,0.166667,0.757400,0.000000,0.051100,0.227273,0.053900,0.181818,0.293100,0.151515,0.514900,0.121212,0.655800,0.151515,FALSE
58,E01033455,"Brent 031G","Brent",0.387700,-0.24310,51.53520,0.779500,0.166667,0.019000,0.000000,0.158500,0.227273,0.339200,0.181818,0.026400,0.151515,0.491300,0.121212,0.637400,0.151515,FALSE
59,E01000552,"Brent 034D","Brent",0.386700,-0.19540,51.53200,0.790100,0.166667,0.022700,0.000000,0.149700,0.227273,0.332200,0.181818,0.024300,0.151515,0.471100,0.121212,0.658800,0.151515,FALSE
60,E01001850,"Hackney 019F","Hackney",0.386300,-0.04150,51.54520,0.839000,0.166667,0.013100,0.000000,0.223700,0.227273,0.256300,0.181818,0.027500,0.151515,0.380300,0.121212,0.651700,0.151515,FALSE
61,E01033870,"Southwark 004G","",0.384900,-0.07620,51.49600,0.888100,0.166667,0.059000,0.000000,0.267300,0.227273,0.035300,0.181818,0.064100,0.151515,0.838700,0.121212,0.000000,0.151515,FALSE
62,E01001738,"Hackney 012C","Hackney",0.384300,-0.08840,51.55550,0.869300,0.166667,0.053400,0.000000,0.164400,0.227273,0.255000,0.181818,0.118700,0.151515,0.723000,0.121212,0.330600,0.151515,FALSE
63,E01001594,"Greenwich 014D","Greenwich",0.383800,0.03080,51.48040,0.888700,0.166667,0.165900,0.000000,0.135600,0.227273,0.047800,0.181818,0.247300,0.151515,0.627300,0.121212,0.545600,0.151515,FALSE
64,E01002857,"Kensington and Chelsea 001E","Kensington and Chelsea",0.383400,-0.20800,51.52470,0.852100,0.166667,0.040200,0.000000,0.197600,0.227273,0.000000,0.181818,0.000000,0.151515,0.484400,0.121212,0.909100,0.151515,FALSE
65,E01001847,"Hackney 018B","Hackney",0.383300,-0.03460,51.54830,0.856400,0.166667,0.037200,0.000000,0.108100,0.227273,0.032300,0.181818,0.025500,0.151515,0.620700,0.121212,0.865000,0.151515,FALSE
66,E01004428,"Waltham Forest 026B","Waltham Forest",0.383100,-0.01920,51.56310,0.940300,0.166667,0.071200,0.000000,0.111500,0.227273,0.128100,0.181818,0.254300,0.151515,0.401200,0.121212,0.597700,0.151515,FALSE
67,E01003172,"Lambeth 024B","Lambeth",0.382800,-0.11240,51.44790,0.908600,0.166667,0.111000,0.000000,0.137200,0.227273,0.121100,0.181818,0.227200,0.151515,0.618000,0.121212,0.454200,0.151515,FALSE
68,E01035492,"Wandsworth 010J","",0.382600,-0.19770,51.46080,0.907400,0.166667,0.062600,0.000000,0.262600,0.227273,0.000000,0.181818,0.000000,0.151515,0.938000,0.121212,0.000000,0.151515,FALSE
69,E01004444,"Waltham Forest 017D","Waltham Forest",0.382300,-0.03000,51.57960,0.825800,0.166667,0.014300,0.000000,0.122200,0.227273,0.329000,0.181818,0.022900,0.151515,0.627000,0.121212,0.512500,0.151515,FALSE
70,E01004272,"Tower Hamlets 014D","Tower Hamlets",0.382000,-0.02490,51.51790,0.896100,0.166667,0.047800,0.000000,0.242700,0.227273,0.137000,0.181818,0.075300,0.151515,0.506500,0.121212,0.526400,0.151515,FALSE
71,E01002034,"Haringey 037A","Haringey",0.381800,-0.06730,51.60600,0.850000,0.166667,0.017300,0.000000,0.075300,0.227273,0.239000,0.181818,0.016700,0.151515,0.476100,0.121212,0.787400,0.151515,FALSE
72,E01034140,"Croydon 015G","",0.381400,-0.10890,51.38580,0.873400,0.166667,0.061800,0.000000,0.258600,0.227273,0.119400,0.181818,0.129700,0.151515,0.642900,0.121212,0.000000,0.151515,FALSE
73,E01004679,"Westminster 005E","Westminster",0.380500,-0.20340,51.52530,0.813000,0.166667,0.032900,0.000000,0.222600,0.227273,0.304400,0.181818,0.058200,0.151515,0.476800,0.121212,0.478100,0.151515,FALSE
74,E01003528,"Newham 005A","Newham",0.380400,0.05960,51.54470,0.969800,0.166667,0.053000,0.000000,0.146800,0.227273,0.097500,0.181818,0.353600,0.151515,0.379200,0.121212,0.449800,0.151515,FALSE
75,E01035673,"Tower Hamlets 012H","",0.380300,-0.02160,51.51770,0.911000,0.166667,0.039400,0.000000,0.437100,0.227273,0.000000,0.181818,0.000000,0.151515,0.589600,0.121212,0.000000,0.151515,FALSE
76,E01033100,"Wandsworth 039B","Wandsworth",0.380200,-0.14770,51.47640,0.778900,0.166667,0.036700,0.000000,0.140700,0.227273,0.386000,0.181818,0.038300,0.151515,0.678200,0.121212,0.397100,0.151515,FALSE
77,E01002049,"Haringey 026D","Haringey",0.380100,-0.08760,51.58450,0.918600,0.166667,0.058900,0.000000,0.130700,0.227273,0.221700,0.181818,0.181600,0.151515,0.485200,0.121212,0.466400,0.151515,FALSE
78,E01001822,"Hackney 029C","Hackney",0.380000,-0.05810,51.56500,0.909200,0.166667,0.024700,0.000000,0.204900,0.227273,0.099700,0.181818,0.032300,0.151515,0.442200,0.121212,0.695100,0.151515,FALSE
79,E01003562,"Newham 014A","Newham",0.379900,0.03550,51.54230,0.885500,0.166667,0.051500,0.000000,0.184000,0.227273,0.309800,0.181818,0.176200,0.151515,0.414700,0.121212,0.377700,0.151515,FALSE
80,E01002306,"Havering 003D","Havering",0.379800,0.17230,51.60670,0.961700,0.166667,0.245900,0.000000,0.088000,0.227273,0.068900,0.181818,0.390900,0.151515,0.474300,0.121212,0.463900,0.151515,FALSE
81,E01000521,"Brent 025B","Brent",0.379700,-0.25420,51.54020,0.827400,0.166667,0.032900,0.000000,0.138700,0.227273,0.193200,0.181818,0.037800,0.151515,0.379800,0.121212,0.814200,0.151515,FALSE
82,E01001331,"Ealing 009E","Ealing",0.379700,-0.39360,51.53270,0.929500,0.166667,0.165800,0.000000,0.108200,0.227273,0.037100,0.181818,0.332800,0.151515,0.479300,0.121212,0.560300,0.151515,FALSE
83,E01001730,"Hackney 019B","Hackney",0.379700,-0.04610,51.54680,0.792400,0.166667,0.013500,0.000000,0.182100,0.227273,0.211300,0.181818,0.014200,0.151515,0.496600,0.121212,0.696500,0.151515,FALSE
84,E01033917,"Barnet 042C","",0.379500,-0.24150,51.59620,0.905300,0.166667,0.039400,0.000000,0.398700,0.227273,0.000000,0.181818,0.000000,0.151515,0.664200,0.121212,0.000000,0.151515,FALSE
85,E01003057,"Lambeth 017D","Lambeth",0.379200,-0.12950,51.46080,0.740800,0.166667,0.031800,0.000000,0.152300,0.227273,0.319100,0.181818,0.031800,0.151515,0.619900,0.121212,0.549000,0.151515,FALSE
86,E01001781,"Hackney 026B","Hackney",0.378500,-0.08590,51.53380,0.883400,0.166667,0.050300,0.000000,0.090700,0.227273,0.238700,0.181818,0.060800,0.151515,0.455400,0.121212,0.679000,0.151515,FALSE
87,E01003566,"Newham 014D","Newham",0.378400,0.03620,51.53740,0.796300,0.166667,0.014200,0.000000,0.173600,0.227273,0.524400,0.181818,0.028400,0.151515,0.316100,0.121212,0.450500,0.151515,FALSE
88,E01001790,"Hackney 013D","Hackney",0.378300,-0.03390,51.55340,0.925800,0.166667,0.062300,0.000000,0.236800,0.227273,0.000000,0.181818,0.000000,0.151515,0.408500,0.121212,0.796100,0.151515,FALSE
89,E01034044,"Hounslow 030C","",0.377900,-0.29160,51.48770,0.883600,0.166667,0.080400,0.000000,0.177400,0.227273,0.175900,0.181818,0.136000,0.151515,0.664000,0.121212,0.000000,0.151515,FALSE
90,E01001811,"Hackney 002D","Hackney",0.377500,-0.08460,51.57380,0.849200,0.166667,0.036700,0.000000,0.181900,0.227273,0.095500,0.181818,0.026500,0.151515,0.501700,0.121212,0.741800,0.151515,FALSE
91,E01035494,"Wandsworth 018E","",0.377200,-0.19700,51.45620,0.809300,0.166667,0.068500,0.000000,0.246700,0.227273,0.000000,0.181818,0.092400,0.151515,0.949400,0.121212,0.000000,0.151515,FALSE
92,E01001776,"Hackney 025F","Hackney",0.376900,-0.07470,51.53350,0.827400,0.166667,0.014300,0.000000,0.144700,0.227273,0.166300,0.181818,0.012900,0.151515,0.560200,0.121212,0.699500,0.151515,FALSE
93,E01001798,"Hackney 028A","Hackney",0.376800,-0.05550,51.56230,0.857500,0.166667,0.006400,0.000000,0.190900,0.227273,0.124100,0.181818,0.007900,0.151515,0.491100,0.121212,0.707500,0.151515,FALSE
94,E01003175,"Lambeth 024D","Lambeth",0.376800,-0.11540,51.44490,0.935400,0.166667,0.134000,0.000000,0.111600,0.227273,0.121500,0.181818,0.183700,0.151515,0.525900,0.121212,0.540300,0.151515,FALSE
95,E01001079,"Croydon 036B","Croydon",0.376200,-0.00360,51.33970,0.948100,0.166667,0.554200,0.000000,0.045100,0.227273,0.095600,0.181818,0.364700,0.151515,0.481500,0.121212,0.507700,0.151515,FALSE
96,E01004335,"Waltham Forest 027A","Waltham Forest",0.375600,0.00290,51.55420,0.888800,0.166667,0.042200,0.000000,0.124700,0.227273,0.201700,0.181818,0.090800,0.151515,0.478000,0.121212,0.598900,0.151515,FALSE
97,E01035647,"Hackney 026F","",0.375600,-0.09540,51.53250,0.910700,0.166667,0.048800,0.000000,0.251400,0.227273,0.000000,0.181818,0.000000,0.151515,0.905700,0.121212,0.000000,0.151515,FALSE
98,E01004522,"Wandsworth 037C","Wandsworth",0.375400,-0.14600,51.42000,0.920000,0.166667,0.120600,0.000000,0.126900,0.227273,0.234400,0.181818,0.213600,0.151515,0.655100,0.121212,0.256300,0.151515,FALSE
99,E01033598,"Westminster 009F","Westminster",0.375400,-0.17330,51.52510,0.803000,0.166667,0.037100,0.000000,0.221800,0.227273,0.188800,0.181818,0.050400,0.151515,0.231300,0.121212,0.799400,0.151515,FALSE
100,E01001861,"Hammersmith and Fulham 006C","Hammersmith and Fulham",0.375100,-0.24450,51.50560,0.878600,0.166667,0.080500,0.000000,0.161000,0.227273,0.196000,0.181818,0.118500,0.151515,0.583800,0.121212,0.446900,0.151515,FALSE
101,E01002071,"Haringey 025C","Haringey",0.374700,-0.06830,51.58500,0.681300,0.166667,0.019000,0.000000,0.142000,0.227273,0.223700,0.181818,0.018700,0.151515,0.508300,0.121212,0.816800,0.151515,FALSE
102,E01000781,"Bromley 001C","Bromley",0.374100,0.05020,51.42960,0.919600,0.166667,0.402400,0.000000,0.078100,0.227273,0.107100,0.181818,0.228500,0.151515,0.527900,0.121212,0.561000,0.151515,FALSE
103,E01003921,"Southwark 021C","Southwark",0.374100,-0.09290,51.47480,0.705000,0.166667,0.051500,0.000000,0.138000,0.227273,0.259800,0.181818,0.023000,0.151515,0.690600,0.121212,0.599200,0.151515,FALSE
104,E01001602,"Greenwich 031C","Greenwich",0.374000,0.05460,51.43180,0.941600,0.166667,0.408000,0.000000,0.070600,0.227273,0.048700,0.181818,0.421700,0.151515,0.455200,0.121212,0.482400,0.151515,FALSE
105,E01033456,"Brent 027F","Brent",0.373900,-0.26490,51.54280,0.901900,0.166667,0.048700,0.000000,0.084800,0.227273,0.167100,0.181818,0.066400,0.151515,0.338300,0.121212,0.810800,0.151515,FALSE
106,E01000662,"Bromley 026B","Bromley",0.373300,0.04930,51.38710,0.972900,0.166667,0.575700,0.000000,0.028800,0.227273,0.049400,0.181818,0.544300,0.151515,0.616200,0.121212,0.254100,0.151515,FALSE
107,E01033921,"Barnet 043A","",0.373100,-0.25330,51.59650,0.877700,0.166667,0.015900,0.000000,0.376200,0.227273,0.000000,0.181818,0.000000,0.151515,0.699400,0.121212,0.000000,0.151515,FALSE
108,E01034191,"Greenwich 040D","",0.373100,0.00280,51.48900,0.941900,0.166667,0.060900,0.000000,0.283000,0.227273,0.000000,0.181818,0.000000,0.151515,0.786200,0.121212,0.000000,0.151515,FALSE
109,E01003238,"Lewisham 037C","Lewisham",0.372900,0.01080,51.42900,0.911400,0.166667,0.293700,0.000000,0.097800,0.227273,0.081300,0.181818,0.262600,0.151515,0.502300,0.121212,0.550000,0.151515,FALSE
110,E01001090,"Croydon 004D","Croydon",0.372800,-0.12260,51.40610,0.925900,0.166667,0.229900,0.000000,0.109300,0.227273,0.037300,0.181818,0.426900,0.151515,0.586000,0.121212,0.337700,0.151515,FALSE
111,E01002773,"Islington 004D","Islington",0.372800,-0.13970,51.56500,0.723100,0.166667,0.021200,0.000000,0.146600,0.227273,0.276700,0.181818,0.017500,0.151515,0.412200,0.121212,0.766100,0.151515,FALSE
112,E01002969,"Kingston upon Thames 005B","Kingston upon Thames",0.372100,-0.28740,51.40820,0.866000,0.166667,0.398500,0.000000,0.236800,0.227273,0.031900,0.181818,0.288800,0.151515,0.252500,0.121212,0.618900,0.151515,FALSE
113,E01003159,"Lambeth 022C","Lambeth",0.371400,-0.13160,51.45170,0.910500,0.166667,0.074000,0.000000,0.105100,0.227273,0.102700,0.181818,0.100000,0.151515,0.656000,0.121212,0.543700,0.151515,FALSE
114,E01001178,"Croydon 015D","Croydon",0.371300,-0.11050,51.38980,0.887900,0.166667,0.091800,0.000000,0.076900,0.227273,0.061300,0.181818,0.064200,0.151515,0.406700,0.121212,0.895700,0.151515,FALSE
115,E01001724,"Hackney 006B","Hackney",0.371200,-0.07140,51.56520,0.813100,0.166667,0.004800,0.000000,0.214300,0.227273,0.233500,0.181818,0.010000,0.151515,0.718700,0.121212,0.368800,0.151515,FALSE
116,E01003556,"Newham 008A","Newham",0.371100,0.02640,51.54780,0.817100,0.166667,0.014400,0.000000,0.122600,0.227273,0.339500,0.181818,0.022500,0.151515,0.369500,0.121212,0.641000,0.151515,FALSE
117,E01001603,"Greenwich 031D","Greenwich",0.371000,0.05880,51.42770,0.931300,0.166667,0.442900,0.000000,0.071300,0.227273,0.064000,0.181818,0.309600,0.151515,0.474700,0.121212,0.551300,0.151515,FALSE
118,E01033322,"Lewisham 017F","Lewisham",0.371000,-0.00280,51.44930,0.898400,0.166667,0.125200,0.000000,0.154500,0.227273,0.149800,0.181818,0.106500,0.151515,0.771500,0.121212,0.325400,0.151515,FALSE
119,E01004012,"Southwark 019C","Southwark",0.370900,-0.08140,51.48050,0.943600,0.166667,0.095300,0.000000,0.143500,0.227273,0.033800,0.181818,0.301700,0.151515,0.565000,0.121212,0.400600,0.151515,FALSE
120,E01003305,"Lewisham 003E","Lewisham",0.370600,-0.04840,51.47860,0.877300,0.166667,0.040900,0.000000,0.173900,0.227273,0.052900,0.181818,0.082100,0.151515,0.521100,0.121212,0.657600,0.151515,FALSE
121,E01004426,"Waltham Forest 022D","Waltham Forest",0.370600,-0.02120,51.56860,0.927700,0.166667,0.061000,0.000000,0.127300,0.227273,0.199700,0.181818,0.211900,0.151515,0.516900,0.121212,0.369600,0.151515,FALSE
122,E01001834,"Hackney 014E","Hackney",0.370400,-0.07620,51.55460,0.851300,0.166667,0.046100,0.000000,0.180000,0.227273,0.096300,0.181818,0.111300,0.151515,0.694300,0.121212,0.456100,0.151515,FALSE
123,E01001357,"Ealing 033D","Ealing",0.370200,-0.27020,51.50250,0.858900,0.166667,0.019300,0.000000,0.213000,0.227273,0.000000,0.181818,0.000000,0.151515,0.678600,0.121212,0.636200,0.151515,FALSE
124,E01035657,"Tower Hamlets 001E","",0.370100,-0.02120,51.54160,0.916700,0.166667,0.018900,0.000000,0.040900,0.227273,0.179200,0.181818,0.010800,0.151515,0.971400,0.121212,0.000000,0.151515,FALSE
125,E01003266,"Lewisham 031C","Lewisham",0.369700,0.03510,51.43020,0.926200,0.166667,0.348100,0.000000,0.086100,0.227273,0.062300,0.181818,0.257200,0.151515,0.458000,0.121212,0.593600,0.151515,FALSE
126,E01002853,"Kensington and Chelsea 001B","Kensington and Chelsea",0.369600,-0.21090,51.52270,0.848900,0.166667,0.039100,0.000000,0.193800,0.227273,0.000000,0.181818,0.000000,0.151515,0.420200,0.121212,0.878400,0.151515,FALSE
127,E01001081,"Croydon 036D","Croydon",0.369500,-0.00430,51.33400,0.970200,0.166667,0.579200,0.000000,0.027000,0.227273,0.054000,0.181818,0.352600,0.151515,0.493900,0.121212,0.518300,0.151515,FALSE
128,E01001066,"Croydon 034F","Croydon",0.369300,-0.05240,51.34920,0.973400,0.166667,0.326100,0.000000,0.076200,0.227273,0.036500,0.181818,0.273800,0.151515,0.434700,0.121212,0.586800,0.151515,FALSE
129,E01034226,"Newham 042C","",0.369300,0.03650,51.50130,0.887600,0.166667,0.016100,0.000000,0.314600,0.227273,0.000000,0.181818,0.000000,0.151515,0.775000,0.121212,0.000000,0.151515,FALSE
130,E01003431,"Merton 019C","Merton",0.369200,-0.12790,51.39710,0.931100,0.166667,0.185300,0.000000,0.116000,0.227273,0.137800,0.181818,0.246900,0.151515,0.490600,0.121212,0.433600,0.151515,FALSE
131,E01003430,"Merton 019B","Merton",0.368700,-0.12900,51.40020,0.928100,0.166667,0.207100,0.000000,0.118100,0.227273,0.091100,0.181818,0.270800,0.151515,0.496500,0.121212,0.457800,0.151515,FALSE
132,E01004334,"Waltham Forest 024B","Waltham Forest",0.368700,0.01050,51.56050,0.915900,0.166667,0.022800,0.000000,0.151800,0.227273,0.043800,0.181818,0.046800,0.151515,0.524300,0.121212,0.679600,0.151515,FALSE
133,E01001978,"Haringey 011C","Haringey",0.368600,-0.07250,51.59700,0.791900,0.166667,0.023100,0.000000,0.125000,0.227273,0.294000,0.181818,0.027100,0.151515,0.479800,0.121212,0.610500,0.151515,FALSE
134,E01032779,"Tower Hamlets 035C","Tower Hamlets",0.368600,-0.00570,51.50530,0.858500,0.166667,0.019700,0.000000,0.411500,0.227273,0.000000,0.181818,0.000000,0.151515,0.789000,0.121212,0.240000,0.151515,FALSE
135,E01003162,"Lambeth 022E","Lambeth",0.368500,-0.13100,51.44760,0.835600,0.166667,0.087400,0.000000,0.146100,0.227273,0.269700,0.181818,0.101500,0.151515,0.585100,0.121212,0.400600,0.151515,FALSE
136,E01004404,"Waltham Forest 014D","Waltham Forest",0.368500,-0.03390,51.59240,0.939000,0.166667,0.050800,0.000000,0.158900,0.227273,0.124400,0.181818,0.119200,0.151515,0.586600,0.121212,0.423200,0.151515,FALSE
137,E01002673,"Hounslow 020E","Hounslow",0.368400,-0.33470,51.45920,0.936200,0.166667,0.148300,0.000000,0.258400,0.227273,0.000000,0.181818,0.000000,0.151515,0.327900,0.121212,0.751900,0.151515,FALSE
138,E01003506,"Newham 034D","Newham",0.368400,0.02180,51.51040,0.778600,0.166667,0.016400,0.000000,0.115200,0.227273,0.283300,0.181818,0.016400,0.151515,0.446200,0.121212,0.689100,0.151515,FALSE
139,E01003077,"Lambeth 014D","Lambeth",0.368300,-0.09970,51.46620,0.864300,0.166667,0.048200,0.000000,0.155000,0.227273,0.214200,0.181818,0.111600,0.151515,0.753200,0.121212,0.276600,0.151515,FALSE
140,E01004056,"Southwark 008A","Southwark",0.368000,-0.03480,51.50150,0.951700,0.166667,0.063500,0.000000,0.106000,0.227273,0.209200,0.181818,0.119800,0.151515,0.717700,0.121212,0.278200,0.151515,FALSE
141,E01035488,"Wandsworth 004H","",0.368000,-0.18170,51.46630,0.761400,0.166667,0.051900,0.000000,0.158200,0.227273,0.203000,0.181818,0.063000,0.151515,0.849100,0.121212,0.000000,0.151515,FALSE
142,E01001182,"Croydon 011D","Croydon",0.367800,-0.12040,51.39920,0.942300,0.166667,0.178300,0.000000,0.089400,0.227273,0.180100,0.181818,0.335000,0.151515,0.495100,0.121212,0.309900,0.151515,FALSE
143,E01001800,"Hackney 004C","Hackney",0.367200,-0.07400,51.56790,0.819700,0.166667,0.018900,0.000000,0.177700,0.227273,0.207300,0.181818,0.035100,0.151515,0.476000,0.121212,0.590600,0.151515,FALSE
144,E01001938,"Hammersmith and Fulham 025D","Hammersmith and Fulham",0.367200,-0.18970,51.46760,0.889700,0.166667,0.062700,0.000000,0.126800,0.227273,0.250300,0.181818,0.073900,0.151515,0.596600,0.121212,0.403400,0.151515,FALSE
145,E01000782,"Bromley 001D","Bromley",0.367100,0.04150,51.42860,0.943900,0.166667,0.377600,0.000000,0.046200,0.227273,0.021300,0.181818,0.142700,0.151515,0.524400,0.121212,0.727500,0.151515,FALSE
146,E01001954,"Hammersmith and Fulham 003A","Hammersmith and Fulham",0.367100,-0.24000,51.50800,0.883100,0.166667,0.065400,0.000000,0.150000,0.227273,0.212200,0.181818,0.147900,0.151515,0.527700,0.121212,0.401500,0.151515,FALSE
147,E01032513,"Westminster 010G","Westminster",0.367100,-0.20100,51.51990,0.823600,0.166667,0.006600,0.000000,0.199500,0.227273,0.294800,0.181818,0.011300,0.151515,0.394500,0.121212,0.537200,0.151515,FALSE
148,E01003164,"Lambeth 025A","Lambeth",0.367000,-0.10480,51.44090,0.810900,0.166667,0.170200,0.000000,0.106200,0.227273,0.243700,0.181818,0.122200,0.151515,0.678500,0.121212,0.413300,0.151515,FALSE
149,E01002097,"Haringey 005D","Haringey",0.366900,-0.08910,51.59950,0.893200,0.166667,0.092600,0.000000,0.126800,0.227273,0.082300,0.181818,0.143800,0.151515,0.458900,0.121212,0.639000,0.151515,FALSE
150,E01002804,"Islington 001D","Islington",0.366800,-0.12060,51.56900,0.890900,0.166667,0.022200,0.000000,0.120000,0.227273,0.207900,0.181818,0.047000,0.151515,0.503000,0.121212,0.562100,0.151515,FALSE
151,E01004540,"Wandsworth 003B","Wandsworth",0.366800,-0.16230,51.47200,0.902300,0.166667,0.063000,0.000000,0.138600,0.227273,0.125300,0.181818,0.134100,0.151515,0.687200,0.121212,0.385900,0.151515,FALSE
152,E01033709,"Hackney 032B","Hackney",0.366800,-0.08690,51.53030,0.767000,0.166667,0.031800,0.000000,0.179600,0.227273,0.168800,0.181818,0.032300,0.151515,0.711600,0.121212,0.503500,0.151515,FALSE
153,E01003037,"Lambeth 013A","Lambeth",0.366700,-0.14690,51.46780,0.872800,0.166667,0.043000,0.000000,0.108100,0.227273,0.181100,0.181818,0.039800,0.151515,0.579100,0.121212,0.577600,0.151515,FALSE
154,E01003068,"Lambeth 031B","Lambeth",0.366700,-0.09400,51.42700,0.938400,0.166667,0.120600,0.000000,0.075600,0.227273,0.141500,0.181818,0.191900,0.151515,0.610100,0.121212,0.424900,0.151515,FALSE
155,E01032788,"Hammersmith and Fulham 023D","Hammersmith and Fulham",0.366700,-0.18620,51.46920,0.898100,0.166667,0.043900,0.000000,0.117400,0.227273,0.192900,0.181818,0.050200,0.151515,0.728500,0.121212,0.391900,0.151515,FALSE
156,E01001714,"Hackney 002A","Hackney",0.366200,-0.09370,51.56810,0.804600,0.166667,0.020200,0.000000,0.117100,0.227273,0.141800,0.181818,0.020800,0.151515,0.616100,0.121212,0.672400,0.151515,FALSE
157,E01034384,"Bromley 005G","",0.366200,-0.07050,51.41320,0.862800,0.166667,0.020700,0.000000,0.139600,0.227273,0.189600,0.181818,0.028300,0.151515,0.795500,0.121212,0.000000,0.151515,FALSE
158,E01001742,"Hackney 008A","Hackney",0.366100,-0.08420,51.55890,0.921300,0.166667,0.070700,0.000000,0.120400,0.227273,0.110600,0.181818,0.121400,0.151515,0.675100,0.121212,0.427700,0.151515,FALSE
159,E01034185,"Greenwich 037G","",0.366100,0.00720,51.48490,0.864700,0.166667,0.083100,0.000000,0.115000,0.227273,0.207200,0.181818,0.057800,0.151515,0.775000,0.121212,0.000000,0.151515,FALSE
160,E01001053,"Croydon 032A","Croydon",0.366000,-0.01330,51.34960,0.930600,0.166667,0.466100,0.000000,0.059000,0.227273,0.102600,0.181818,0.313400,0.151515,0.480900,0.121212,0.482400,0.151515,FALSE
161,E01002805,"Islington 003B","Islington",0.365900,-0.11430,51.56860,0.755200,0.166667,0.023100,0.000000,0.095900,0.227273,0.397000,0.181818,0.022000,0.151515,0.766100,0.121212,0.328800,0.151515,FALSE
162,E01001722,"Hackney 029A","Hackney",0.365300,-0.06240,51.56330,0.878400,0.166667,0.027400,0.000000,0.187700,0.227273,0.199600,0.181818,0.043700,0.151515,0.510700,0.121212,0.471100,0.151515,FALSE
163,E01002040,"Haringey 002D","Haringey",0.365200,-0.06030,51.60100,0.897600,0.166667,0.057700,0.000000,0.131500,0.227273,0.044400,0.181818,0.099900,0.151515,0.458400,0.121212,0.706100,0.151515,FALSE
164,E01001773,"Hackney 025E","Hackney",0.365100,-0.07450,51.53630,0.845900,0.166667,0.016500,0.000000,0.175100,0.227273,0.063600,0.181818,0.022300,0.151515,0.678200,0.121212,0.575400,0.151515,FALSE
165,E01004424,"Waltham Forest 022B","Waltham Forest",0.365100,-0.02390,51.56830,0.924500,0.166667,0.073900,0.000000,0.083900,0.227273,0.147100,0.181818,0.128200,0.151515,0.502400,0.121212,0.560200,0.151515,FALSE
166,E01002783,"Islington 010B","Islington",0.364900,-0.12840,51.55120,0.851900,0.166667,0.049100,0.000000,0.148700,0.227273,0.117500,0.181818,0.067700,0.151515,0.414600,0.121212,0.707700,0.151515,FALSE
167,E01000091,"Barking and Dagenham 022A","Barking and Dagenham",0.364800,0.10830,51.52740,0.932800,0.166667,0.064000,0.000000,0.072500,0.227273,0.146700,0.181818,0.110500,0.151515,0.433700,0.121212,0.639200,0.151515,FALSE
168,E01002074,"Haringey 012A","Haringey",0.364600,-0.06440,51.59900,0.848300,0.166667,0.044500,0.000000,0.145700,0.227273,0.184300,0.181818,0.060000,0.151515,0.455700,0.121212,0.609100,0.151515,FALSE
169,E01003920,"Southwark 021B","Southwark",0.364600,-0.09480,51.47750,0.769200,0.166667,0.074200,0.000000,0.209000,0.227273,0.208600,0.181818,0.077200,0.151515,0.548100,0.121212,0.480700,0.151515,FALSE
170,E01001840,"Hackney 022B","Hackney",0.364400,-0.04860,51.54030,0.864100,0.166667,0.043200,0.000000,0.126700,0.227273,0.196100,0.181818,0.042900,0.151515,0.477100,0.121212,0.604400,0.151515,FALSE
171,E01032770,"Tower Hamlets 032B","Tower Hamlets",0.364300,-0.02200,51.49800,0.826800,0.166667,0.029400,0.000000,0.420600,0.227273,0.000000,0.181818,0.000000,0.151515,0.792500,0.121212,0.229700,0.151515,FALSE
172,E01003240,"Lewisham 038B","Lewisham",0.364000,0.00020,51.42530,0.919000,0.166667,0.258900,0.000000,0.081700,0.227273,0.111500,0.181818,0.288000,0.151515,0.455000,0.121212,0.483000,0.151515,FALSE
173,E01001483,"Enfield 025A","Enfield",0.363600,-0.02900,51.63010,0.989600,0.166667,0.155800,0.000000,0.017300,0.227273,0.007700,0.181818,0.147000,0.151515,0.381000,0.121212,0.824200,0.151515,FALSE
174,E01034482,"Redbridge 032F","",0.363600,0.06840,51.55810,0.627600,0.166667,0.006300,0.000000,0.336400,0.227273,0.229900,0.181818,0.011600,0.151515,0.692300,0.121212,0.000000,0.151515,FALSE
175,E01002829,"Kensington and Chelsea 004A","Kensington and Chelsea",0.363500,-0.20130,51.51720,0.841300,0.166667,0.027400,0.000000,0.207400,0.227273,0.140900,0.181818,0.043200,0.151515,0.542500,0.121212,0.516500,0.151515,FALSE
176,E01001814,"Hackney 001C","Hackney",0.363400,-0.07040,51.57470,0.807000,0.166667,0.026200,0.000000,0.128100,0.227273,0.275300,0.181818,0.029700,0.151515,0.588600,0.121212,0.487600,0.151515,FALSE
177,E01003508,"Newham 031B","Newham",0.363400,0.01940,51.51800,0.881500,0.166667,0.037600,0.000000,0.168500,0.227273,0.036900,0.181818,0.074600,0.151515,0.627800,0.121212,0.555000,0.151515,FALSE
178,E01034223,"Newham 040B","",0.363400,-0.00650,51.53510,0.684600,0.166667,0.029300,0.000000,0.195500,0.227273,0.262500,0.181818,0.023100,0.151515,0.813300,0.121212,0.000000,0.151515,FALSE
179,E01003120,"Lambeth 032D","Lambeth",0.363200,-0.12920,51.42850,0.726600,0.166667,0.152200,0.000000,0.142300,0.227273,0.210600,0.181818,0.087800,0.151515,0.692300,0.121212,0.490000,0.151515,FALSE
180,E01002087,"Haringey 019D","Haringey",0.362800,-0.09570,51.58780,0.785700,0.166667,0.036200,0.000000,0.143800,0.227273,0.245200,0.181818,0.051300,0.151515,0.549500,0.121212,0.529500,0.151515,FALSE
181,E01003984,"Southwark 023A","Southwark",0.362700,-0.05890,51.47790,0.820300,0.166667,0.030800,0.000000,0.118700,0.227273,0.199400,0.181818,0.030000,0.151515,0.645800,0.121212,0.527700,0.151515,FALSE
182,E01033700,"Hackney 030B","Hackney",0.362700,-0.07390,51.54500,0.712800,0.166667,0.006000,0.000000,0.195100,0.227273,0.166200,0.181818,0.005200,0.151515,0.832800,0.121212,0.446300,0.151515,FALSE
183,E01001831,"Hackney 009D","Hackney",0.362600,-0.07290,51.56120,0.778300,0.166667,0.023500,0.000000,0.130300,0.227273,0.269300,0.181818,0.020300,0.151515,0.709200,0.121212,0.430700,0.151515,FALSE
184,E01003761,"Redbridge 009C","Redbridge",0.362500,0.04120,51.60050,0.968200,0.166667,0.059100,0.000000,0.150200,0.227273,0.067000,0.181818,0.118800,0.151515,0.378900,0.121212,0.600000,0.151515,FALSE
185,E01032781,"Tower Hamlets 033C","Tower Hamlets",0.362400,-0.02670,51.49970,0.879000,0.166667,0.034800,0.000000,0.270400,0.227273,0.186600,0.181818,0.075000,0.151515,0.693200,0.121212,0.165800,0.151515,FALSE
186,E01004464,"Waltham Forest 013C","Waltham Forest",0.362300,-0.00540,51.58640,0.915400,0.166667,0.012300,0.000000,0.130000,0.227273,0.127200,0.181818,0.017400,0.151515,0.568700,0.121212,0.564200,0.151515,FALSE
187,E01002786,"Islington 010D","Islington",0.362200,-0.12260,51.55740,0.800100,0.166667,0.054900,0.000000,0.153300,0.227273,0.215300,0.181818,0.055700,0.151515,0.530400,0.121212,0.541800,0.151515,FALSE
188,E01001999,"Haringey 023B","Haringey",0.362100,-0.10100,51.58240,0.833900,0.166667,0.040100,0.000000,0.143100,0.227273,0.251100,0.181818,0.061000,0.151515,0.631800,0.121212,0.389900,0.151515,FALSE
189,E01002694,"Islington 019A","Islington",0.362000,-0.11290,51.53570,0.820800,0.166667,0.038800,0.000000,0.204700,0.227273,0.120600,0.181818,0.042400,0.151515,0.425800,0.121212,0.651600,0.151515,FALSE
190,E01001885,"Hammersmith and Fulham 015A","Hammersmith and Fulham",0.361800,-0.20430,51.48360,0.795300,0.166667,0.048400,0.000000,0.199200,0.227273,0.059100,0.181818,0.043300,0.151515,0.407000,0.121212,0.774700,0.151515,FALSE
191,E01001257,"Ealing 008A","Ealing",0.361600,-0.37710,51.53340,0.910700,0.166667,0.119400,0.000000,0.116300,0.227273,0.054100,0.181818,0.133400,0.151515,0.493500,0.121212,0.617500,0.151515,FALSE
192,E01003733,"Redbridge 032E","Redbridge",0.361500,0.07210,51.54950,0.940000,0.166667,0.073800,0.000000,0.161600,0.227273,0.059400,0.181818,0.335400,0.151515,0.415900,0.121212,0.369800,0.151515,FALSE
193,E01034184,"Greenwich 037F","",0.361300,0.00910,51.48560,0.860400,0.166667,0.091000,0.000000,0.289700,0.227273,0.000000,0.181818,0.000000,0.151515,0.803000,0.121212,0.000000,0.151515,FALSE
194,E01002776,"Islington 014E","Islington",0.361000,-0.08640,51.54790,0.777000,0.166667,0.026100,0.000000,0.137900,0.227273,0.260100,0.181818,0.023800,0.151515,0.633600,0.121212,0.478200,0.151515,FALSE
195,E01002089,"Haringey 013D","Haringey",0.360900,-0.08110,51.59430,0.947100,0.166667,0.051400,0.000000,0.250200,0.227273,0.000000,0.181818,0.000000,0.151515,0.311300,0.121212,0.715900,0.151515,FALSE
196,E01001703,"Greenwich 011E","Greenwich",0.360800,0.07010,51.48050,0.924000,0.166667,0.071700,0.000000,0.210800,0.227273,0.060500,0.181818,0.157000,0.151515,0.432900,0.121212,0.473000,0.151515,FALSE
197,E01001836,"Hackney 022A","Hackney",0.360500,-0.04500,51.53760,0.937500,0.166667,0.065400,0.000000,0.120900,0.227273,0.125400,0.181818,0.121600,0.151515,0.639800,0.121212,0.382600,0.151515,FALSE
198,E01002039,"Haringey 002C","Haringey",0.360500,-0.05830,51.60300,0.902300,0.166667,0.060700,0.000000,0.190800,0.227273,0.000000,0.181818,0.000000,0.151515,0.311200,0.121212,0.851400,0.151515,FALSE
199,E01002907,"Kensington and Chelsea 002D","Kensington and Chelsea",0.360500,-0.22580,51.52300,0.947600,0.166667,0.053900,0.000000,0.212600,0.227273,0.000000,0.181818,0.000000,0.151515,0.265100,0.121212,0.805700,0.151515,FALSE
200,E01000528,"Brent 025F","Brent",0.360200,-0.25360,51.54380,0.926900,0.166667,0.059300,0.000000,0.133300,0.227273,0.026600,0.181818,0.046800,0.151515,0.472500,0.121212,0.700900,0.151515,FALSE
201,E01000731,"Bromley 023C","Bromley",0.360200,0.09780,51.39520,0.949800,0.166667,0.737300,0.000000,0.050100,0.227273,0.049700,0.181818,0.330000,0.151515,0.535200,0.121212,0.439700,0.151515,FALSE
202,E01001700,"Greenwich 011D","Greenwich",0.359800,0.07100,51.48350,0.891500,0.166667,0.049200,0.000000,0.142200,0.227273,0.196300,0.181818,0.088500,0.151515,0.493000,0.121212,0.462200,0.151515,FALSE
203,E01033706,"Hackney 033B","Hackney",0.359600,-0.07840,51.52800,0.700300,0.166667,0.024800,0.000000,0.091800,0.227273,0.285400,0.181818,0.011400,0.151515,0.784600,0.121212,0.483700,0.151515,FALSE
204,E01001990,"Haringey 034C","Haringey",0.359500,-0.12320,51.58000,0.892400,0.166667,0.069400,0.000000,0.110100,0.227273,0.202300,0.181818,0.110100,0.151515,0.824500,0.121212,0.213500,0.151515,FALSE
205,E01002067,"Haringey 024A","Haringey",0.359500,-0.08200,51.58750,0.897500,0.166667,0.048000,0.000000,0.103200,0.227273,0.091600,0.181818,0.096000,0.151515,0.525800,0.121212,0.604000,0.151515,FALSE
206,E01035643,"Hackney 025H","",0.359500,-0.08480,51.53760,0.891100,0.166667,0.043200,0.000000,0.152300,0.227273,0.126300,0.181818,0.105400,0.151515,0.684500,0.121212,0.000000,0.151515,FALSE
207,E01003059,"Lambeth 011D","Lambeth",0.359400,-0.11430,51.46950,0.699800,0.166667,0.043600,0.000000,0.246300,0.227273,0.091400,0.181818,0.044700,0.151515,0.609800,0.121212,0.590800,0.151515,FALSE
208,E01002798,"Islington 018C","Islington",0.359300,-0.09180,51.53670,0.862500,0.166667,0.072900,0.000000,0.122600,0.227273,0.217200,0.181818,0.115000,0.151515,0.695100,0.121212,0.307200,0.151515,FALSE
209,E01004365,"Waltham Forest 020A","Waltham Forest",0.359300,-0.01130,51.57620,0.789600,0.166667,0.050500,0.000000,0.184100,0.227273,0.292900,0.181818,0.055200,0.151515,0.484300,0.121212,0.432700,0.151515,FALSE
210,E01001055,"Croydon 032B","Croydon",0.359200,-0.01470,51.35440,0.939200,0.166667,0.433200,0.000000,0.045500,0.227273,0.062200,0.181818,0.252500,0.151515,0.445900,0.121212,0.585800,0.151515,FALSE
211,E01003971,"Southwark 015D","Southwark",0.359000,-0.08350,51.48750,0.886900,0.166667,0.090900,0.000000,0.193200,0.227273,0.000000,0.181818,0.000000,0.151515,0.415700,0.121212,0.771200,0.151515,FALSE
212,E01004330,"Waltham Forest 028D","Waltham Forest",0.359000,0.01070,51.55630,0.935800,0.166667,0.053600,0.000000,0.151400,0.227273,0.108100,0.181818,0.245100,0.151515,0.629700,0.121212,0.234100,0.151515,FALSE
213,E01001772,"Hackney 024A","Hackney",0.358900,-0.07180,51.53770,0.851800,0.166667,0.017200,0.000000,0.234800,0.227273,0.000000,0.181818,0.000000,0.151515,0.558700,0.121212,0.632800,0.151515,FALSE
214,E01002768,"Islington 004A","Islington",0.358900,-0.13750,51.55850,0.813600,0.166667,0.012100,0.000000,0.133500,0.227273,0.280600,0.181818,0.011800,0.151515,0.615500,0.121212,0.432800,0.151515,FALSE
215,E01002780,"Islington 014F","Islington",0.358800,-0.08890,51.54980,0.807500,0.166667,0.015500,0.000000,0.185200,0.227273,0.232800,0.181818,0.022200,0.151515,0.644000,0.121212,0.385300,0.151515,FALSE
216,E01004040,"Southwark 013C","Southwark",0.358800,-0.07440,51.48820,0.834000,0.166667,0.087400,0.000000,0.147100,0.227273,0.167500,0.181818,0.110900,0.151515,0.394600,0.121212,0.602500,0.151515,FALSE
217,E01001830,"Hackney 014C","Hackney",0.358700,-0.07610,51.55770,0.835200,0.166667,0.035300,0.000000,0.156600,0.227273,0.167200,0.181818,0.068000,0.151515,0.577800,0.121212,0.482700,0.151515,FALSE
218,E01002043,"Haringey 026A","Haringey",0.358700,-0.09190,51.58450,0.901400,0.166667,0.060600,0.000000,0.142900,0.227273,0.074900,0.181818,0.172500,0.151515,0.621600,0.121212,0.401700,0.151515,FALSE
219,E01002741,"Islington 009B","Islington",0.358700,-0.09360,51.55900,0.879900,0.166667,0.056900,0.000000,0.123800,0.227273,0.171300,0.181818,0.102900,0.151515,0.480000,0.121212,0.521600,0.151515,FALSE
220,E01003551,"Newham 009A","Newham",0.358400,0.01800,51.54430,0.898200,0.166667,0.046300,0.000000,0.165000,0.227273,0.076800,0.181818,0.105100,0.151515,0.510700,0.121212,0.523800,0.151515,FALSE
221,E01003561,"Newham 007C","Newham",0.358400,0.03620,51.54520,0.885700,0.166667,0.047800,0.000000,0.185500,0.227273,0.219800,0.181818,0.165200,0.151515,0.425700,0.121212,0.343500,0.151515,FALSE
222,E01000739,"Bromley 014E","Bromley",0.358100,0.10660,51.40100,0.923700,0.166667,0.693100,0.000000,0.063700,0.227273,0.021600,0.181818,0.213600,0.151515,0.460800,0.121212,0.643500,0.151515,FALSE
223,E01003351,"Lewisham 026C","Lewisham",0.358100,0.00970,51.43260,0.937200,0.166667,0.266400,0.000000,0.078700,0.227273,0.017000,0.181818,0.258200,0.151515,0.471100,0.121212,0.558700,0.151515,FALSE
224,E01001653,"Greenwich 029A","Greenwich",0.357900,0.03520,51.44530,0.969200,0.166667,0.272300,0.000000,0.050800,0.227273,0.015100,0.181818,0.182900,0.151515,0.499300,0.121212,0.619100,0.151515,FALSE
225,E01000093,"Barking and Dagenham 022B","Barking and Dagenham",0.357800,0.10270,51.52930,0.940900,0.166667,0.068500,0.000000,0.052300,0.227273,0.105000,0.181818,0.095400,0.151515,0.389500,0.121212,0.715200,0.151515,FALSE
226,E01003570,"Newham 008C","Newham",0.357800,0.02890,51.54550,0.855900,0.166667,0.035500,0.000000,0.160000,0.227273,0.243600,0.181818,0.079200,0.151515,0.428700,0.121212,0.465300,0.151515,FALSE
227,E01003966,"Southwark 015B","Southwark",0.357800,-0.08060,51.48890,0.817400,0.166667,0.097400,0.000000,0.180800,0.227273,0.133600,0.181818,0.138600,0.151515,0.493700,0.121212,0.497500,0.151515,FALSE
228,E01001625,"Greenwich 025E","Greenwich",0.357700,0.04130,51.45900,0.924700,0.166667,0.260100,0.000000,0.056300,0.227273,0.105700,0.181818,0.158500,0.151515,0.449400,0.121212,0.614400,0.151515,FALSE
229,E01003047,"Lambeth 011B","Lambeth",0.357700,-0.11210,51.46430,0.581800,0.166667,0.014700,0.000000,0.084700,0.227273,0.408300,0.181818,0.005600,0.151515,0.625100,0.121212,0.598300,0.151515,FALSE
230,E01002280,"Havering 004A","Havering",0.357600,0.21640,51.60910,0.928800,0.166667,0.145500,0.000000,0.101500,0.227273,0.000000,0.181818,0.000000,0.151515,0.527400,0.121212,0.764100,0.151515,FALSE
231,E01002923,"Kingston upon Thames 013A","Kingston upon Thames",0.357200,-0.29560,51.39040,0.880300,0.166667,0.485900,0.000000,0.122900,0.227273,0.024700,0.181818,0.413900,0.151515,0.395400,0.121212,0.444800,0.151515,FALSE
232,E01003494,"Newham 025C","Newham",0.357100,0.04080,51.52670,0.881200,0.166667,0.069400,0.000000,0.172400,0.227273,0.150300,0.181818,0.210900,0.151515,0.541300,0.121212,0.304800,0.151515,FALSE
233,E01004449,"Waltham Forest 018E","Waltham Forest",0.357000,-0.02590,51.57490,0.931300,0.166667,0.050200,0.000000,0.088800,0.227273,0.049100,0.181818,0.128000,0.151515,0.383600,0.121212,0.704900,0.151515,FALSE
234,E01034033,"Hounslow 006H","",0.357000,-0.31220,51.48350,0.894100,0.166667,0.109300,0.000000,0.104100,0.227273,0.086800,0.181818,0.109700,0.151515,0.807400,0.121212,0.000000,0.151515,FALSE
235,E01002403,"Hillingdon 024D","Hillingdon",0.356900,-0.43440,51.51880,0.957300,0.166667,0.136300,0.000000,0.103900,0.227273,0.060300,0.181818,0.294200,0.151515,0.488000,0.121212,0.389600,0.151515,FALSE
236,E01003324,"Lewisham 020E","Lewisham",0.356900,-0.02010,51.44820,0.780800,0.166667,0.120600,0.000000,0.155700,0.227273,0.140600,0.181818,0.109800,0.151515,0.533800,0.121212,0.557300,0.151515,FALSE
237,E01003184,"Lambeth 007B","Lambeth",0.356800,-0.11120,51.47600,0.820200,0.166667,0.042500,0.000000,0.220100,0.227273,0.097200,0.181818,0.063500,0.151515,0.554100,0.121212,0.499000,0.151515,FALSE
238,E01003541,"Newham 029D","Newham",0.356700,0.05030,51.52120,0.939800,0.166667,0.070600,0.000000,0.107700,0.227273,0.127400,0.181818,0.208600,0.151515,0.498900,0.121212,0.398300,0.151515,FALSE
239,E01003553,"Newham 009B","Newham",0.356400,0.01350,51.54520,0.872500,0.166667,0.036000,0.000000,0.167100,0.227273,0.153400,0.181818,0.068100,0.151515,0.440300,0.121212,0.537500,0.151515,FALSE
240,E01033703,"Hackney 010F","Hackney",0.356100,-0.05490,51.55370,0.767000,0.166667,0.045900,0.000000,0.185800,0.227273,0.161500,0.181818,0.039200,0.151515,0.605300,0.121212,0.510700,0.151515,FALSE
241,E01033936,"Brent 020G","",0.355900,-0.29340,51.55350,0.741300,0.166667,0.012500,0.000000,0.179200,0.227273,0.350600,0.181818,0.011700,0.151515,0.595700,0.121212,0.000000,0.151515,FALSE
242,E01001942,"Hammersmith and Fulham 005D","Hammersmith and Fulham",0.355800,-0.23210,51.50510,0.817000,0.166667,0.026100,0.000000,0.170300,0.227273,0.207400,0.181818,0.045300,0.151515,0.687000,0.121212,0.350200,0.151515,FALSE
243,E01004524,"Wandsworth 037D","Wandsworth",0.355800,-0.14070,51.42820,0.917500,0.166667,0.104500,0.000000,0.119400,0.227273,0.115100,0.181818,0.123800,0.151515,0.466800,0.121212,0.524800,0.151515,FALSE
244,E01002542,"Hillingdon 020D","Hillingdon",0.355700,-0.39670,51.52690,0.935300,0.166667,0.180800,0.000000,0.102700,0.227273,0.065000,0.181818,0.294900,0.151515,0.438600,0.121212,0.440700,0.151515,FALSE
245,E01003093,"Lambeth 010B","Lambeth",0.355700,-0.12230,51.47020,0.713900,0.166667,0.011700,0.000000,0.270000,0.227273,0.191600,0.181818,0.015000,0.151515,0.520000,0.121212,0.496100,0.151515,FALSE
246,E01003090,"Lambeth 012D","Lambeth",0.355600,-0.12770,51.46710,0.743300,0.166667,0.011700,0.000000,0.145400,0.227273,0.248200,0.181818,0.008500,0.151515,0.792900,0.121212,0.370300,0.151515,FALSE
247,E01001777,"Hackney 033A","Hackney",0.355500,-0.07670,51.53140,0.809100,0.166667,0.003500,0.000000,0.147000,0.227273,0.174400,0.181818,0.004400,0.151515,0.637600,0.121212,0.512300,0.151515,FALSE
248,E01003516,"Newham 032C","Newham",0.355500,0.03460,51.51650,0.870500,0.166667,0.037200,0.000000,0.120300,0.227273,0.176300,0.181818,0.037600,0.151515,0.445200,0.121212,0.602900,0.151515,FALSE
249,E01000404,"Bexley 004B","Bexley",0.355400,0.17440,51.48470,0.904000,0.166667,0.258700,0.000000,0.121600,0.227273,0.068600,0.181818,0.217200,0.151515,0.529800,0.121212,0.445200,0.151515,FALSE
250,E01003089,"Lambeth 008A","Lambeth",0.355400,-0.13470,51.47310,0.857300,0.166667,0.026000,0.000000,0.126000,0.227273,0.180300,0.181818,0.026800,0.151515,0.629700,0.121212,0.467000,0.151515,FALSE
251,E01001249,"Ealing 028A","Ealing",0.355300,-0.32250,51.51170,0.825300,0.166667,0.012100,0.000000,0.134600,0.227273,0.146900,0.181818,0.012200,0.151515,0.522300,0.121212,0.628800,0.151515,FALSE
252,E01003574,"Newham 017D","Newham",0.355200,0.02550,51.53890,0.892400,0.166667,0.050000,0.000000,0.115700,0.227273,0.275100,0.181818,0.113000,0.151515,0.390900,0.121212,0.433100,0.151515,FALSE
253,E01003390,"Merton 018D","Merton",0.355100,-0.16490,51.40730,0.817400,0.166667,0.103000,0.000000,0.167000,0.227273,0.159000,0.181818,0.083400,0.151515,0.523500,0.121212,0.501200,0.151515,FALSE
254,E01003502,"Newham 030C","Newham",0.355100,0.01400,51.51920,0.759200,0.166667,0.042900,0.000000,0.152500,0.227273,0.283500,0.181818,0.048300,0.151515,0.429700,0.121212,0.547600,0.151515,FALSE
255,E01001089,"Croydon 004C","Croydon",0.355000,-0.12630,51.40840,0.909900,0.166667,0.248600,0.000000,0.097400,0.227273,0.113900,0.181818,0.220700,0.151515,0.518800,0.121212,0.423700,0.151515,FALSE
256,E01001363,"Ealing 026D","Ealing",0.354900,-0.38740,51.51360,0.929300,0.166667,0.070700,0.000000,0.126600,0.227273,0.168000,0.181818,0.210000,0.151515,0.420900,0.121212,0.382100,0.151515,FALSE
257,E01003243,"Lewisham 038D","Lewisham",0.354900,-0.00630,51.42300,0.920700,0.166667,0.229700,0.000000,0.052400,0.227273,0.080300,0.181818,0.168400,0.151515,0.527300,0.121212,0.564300,0.151515,FALSE
258,E01034228,"Newham 042E","",0.354800,0.03140,51.50110,0.919600,0.166667,0.008000,0.000000,0.181100,0.227273,0.000000,0.181818,0.000000,0.151515,0.879400,0.121212,0.000000,0.151515,FALSE
259,E01003024,"Lambeth 021D","Lambeth",0.354700,-0.12230,51.45020,0.815100,0.166667,0.100400,0.000000,0.127500,0.227273,0.153400,0.181818,0.086500,0.151515,0.643400,0.121212,0.468100,0.151515,FALSE
260,E01003591,"Newham 004D","Newham",0.354700,0.04890,51.55060,0.800700,0.166667,0.016900,0.000000,0.117700,0.227273,0.371600,0.181818,0.014900,0.151515,0.391000,0.121212,0.510200,0.151515,FALSE
261,E01000595,"Brent 027A","Brent",0.354600,-0.25830,51.54460,0.919700,0.166667,0.062000,0.000000,0.079500,0.227273,0.106800,0.181818,0.085200,0.151515,0.382500,0.121212,0.689900,0.151515,FALSE
262,E01001739,"Hackney 012D","Hackney",0.354600,-0.08510,51.55470,0.876300,0.166667,0.055000,0.000000,0.139000,0.227273,0.101200,0.181818,0.069200,0.151515,0.751200,0.121212,0.376400,0.151515,FALSE
263,E01000064,"Barking and Dagenham 006E","Barking and Dagenham",0.354500,0.15690,51.55360,0.958100,0.166667,0.082000,0.000000,0.094200,0.227273,0.070500,0.181818,0.131200,0.151515,0.500200,0.121212,0.528600,0.151515,FALSE
264,E01003082,"Lambeth 031C","Lambeth",0.354400,-0.10360,51.42640,0.863500,0.166667,0.158600,0.000000,0.093900,0.227273,0.176300,0.181818,0.142700,0.151515,0.559100,0.121212,0.447000,0.151515,FALSE
265,E01033081,"Hounslow 031D","Hounslow",0.354400,-0.30140,51.48450,0.888800,0.166667,0.093200,0.000000,0.140200,0.227273,0.124400,0.181818,0.120500,0.151515,0.660700,0.121212,0.352600,0.151515,FALSE
266,E01000935,"Camden 020E","Camden",0.354300,-0.18590,51.54020,0.817800,0.166667,0.031600,0.000000,0.221900,0.227273,0.166400,0.181818,0.045300,0.151515,0.474700,0.121212,0.481200,0.151515,FALSE
267,E01034231,"Newham 042H","",0.354300,0.03270,51.49940,0.927100,0.166667,0.020300,0.000000,0.167300,0.227273,0.000000,0.181818,0.000000,0.151515,0.891800,0.121212,0.000000,0.151515,FALSE
268,E01001051,"Croydon 030A","Croydon",0.354100,-0.02250,51.35690,0.934200,0.166667,0.394800,0.000000,0.053300,0.227273,0.043300,0.181818,0.251500,0.151515,0.421200,0.121212,0.589100,0.151515,FALSE
269,E01004028,"Southwark 004E","Southwark",0.353900,-0.07060,51.49900,0.839300,0.166667,0.031700,0.000000,0.173400,0.227273,0.178600,0.181818,0.034800,0.151515,0.646400,0.121212,0.386400,0.151515,FALSE
270,E01000367,"Bexley 010A","Bexley",0.353700,0.17680,51.47190,0.961000,0.166667,0.303800,0.000000,0.074000,0.227273,0.027400,0.181818,0.268200,0.151515,0.508800,0.121212,0.458400,0.151515,FALSE
271,E01002588,"Hounslow 016B","Hounslow",0.353600,-0.40010,51.47160,0.967200,0.166667,0.065200,0.000000,0.122500,0.227273,0.016300,0.181818,0.150100,0.151515,0.434200,0.121212,0.568800,0.151515,FALSE
272,E01003083,"Lambeth 030A","Lambeth",0.353600,-0.11280,51.43100,0.916500,0.166667,0.209800,0.000000,0.088900,0.227273,0.173800,0.181818,0.252700,0.151515,0.565900,0.121212,0.278100,0.151515,FALSE
273,E01003509,"Newham 031C","Newham",0.353500,0.02190,51.51860,0.878400,0.166667,0.025400,0.000000,0.170500,0.227273,0.107000,0.181818,0.041800,0.151515,0.512500,0.121212,0.531100,0.151515,FALSE
274,E01003605,"Newham 028C","Newham",0.353300,0.03550,51.52860,0.817700,0.166667,0.049400,0.000000,0.168000,0.227273,0.264600,0.181818,0.078100,0.151515,0.437200,0.121212,0.435200,0.151515,FALSE
275,E01004407,"Waltham Forest 013A","Waltham Forest",0.353200,-0.01120,51.58920,0.893900,0.166667,0.044900,0.000000,0.154200,0.227273,0.111200,0.181818,0.063600,0.151515,0.369300,0.121212,0.623800,0.151515,FALSE
276,E01034472,"Barking and Dagenham 008H","",0.353100,0.10940,51.54980,0.912900,0.166667,0.093400,0.000000,0.343200,0.227273,0.000000,0.181818,0.000000,0.151515,0.572800,0.121212,0.000000,0.151515,FALSE
277,E01003058,"Lambeth 015E","Lambeth",0.353000,-0.12440,51.46070,0.775700,0.166667,0.041500,0.000000,0.187100,0.227273,0.092500,0.181818,0.072800,0.151515,0.823600,0.121212,0.352900,0.151515,FALSE
278,E01001958,"Hammersmith and Fulham 002C","Hammersmith and Fulham",0.352900,-0.23360,51.51370,0.822400,0.166667,0.043300,0.000000,0.327400,0.227273,0.000000,0.181818,0.000000,0.151515,0.437900,0.121212,0.582800,0.151515,FALSE
279,E01001206,"Ealing 018C","Ealing",0.352700,-0.33030,51.52170,0.946700,0.166667,0.072300,0.000000,0.090200,0.227273,0.113300,0.181818,0.069300,0.151515,0.380200,0.121212,0.641400,0.151515,FALSE
280,E01003320,"Lewisham 018B","Lewisham",0.352600,-0.00950,51.44540,0.929900,0.166667,0.146600,0.000000,0.072500,0.227273,0.069900,0.181818,0.096100,0.151515,0.613300,0.121212,0.525100,0.151515,FALSE
281,E01004493,"Wandsworth 019A","Wandsworth",0.352300,-0.18880,51.44680,0.915000,0.166667,0.083800,0.000000,0.119800,0.227273,0.110200,0.181818,0.182900,0.151515,0.803900,0.121212,0.180900,0.151515,FALSE
282,E01001757,"Hackney 016C","Hackney",0.352200,-0.05720,51.55210,0.760500,0.166667,0.030000,0.000000,0.274100,0.227273,0.149700,0.181818,0.041200,0.151515,0.477900,0.121212,0.473900,0.151515,FALSE
283,E01003558,"Newham 008B","Newham",0.352200,0.02380,51.54530,0.843300,0.166667,0.029700,0.000000,0.097800,0.227273,0.244900,0.181818,0.027500,0.151515,0.440600,0.121212,0.576200,0.151515,FALSE
284,E01004042,"Southwark 010D","Southwark",0.352200,-0.06420,51.49210,0.875300,0.166667,0.041800,0.000000,0.113700,0.227273,0.078400,0.181818,0.017700,0.151515,0.485700,0.121212,0.690700,0.151515,FALSE
285,E01000021,"Barking and Dagenham 008A","Barking and Dagenham",0.352100,0.11610,51.55460,0.941000,0.166667,0.086100,0.000000,0.085200,0.227273,0.087100,0.181818,0.108600,0.151515,0.451400,0.121212,0.586400,0.151515,FALSE
286,E01003156,"Lambeth 023B","Lambeth",0.352000,-0.13870,51.44560,0.937000,0.166667,0.065000,0.000000,0.117400,0.227273,0.125400,0.181818,0.095600,0.151515,0.761700,0.121212,0.261100,0.151515,FALSE
287,E01001517,"Enfield 006C","Enfield",0.351900,-0.05010,51.66100,0.935600,0.166667,0.089200,0.000000,0.096600,0.227273,0.057400,0.181818,0.125800,0.151515,0.261400,0.121212,0.744400,0.151515,FALSE
288,E01003044,"Lambeth 018B","Lambeth",0.351900,-0.10530,51.45940,0.924000,0.166667,0.046500,0.000000,0.180800,0.227273,0.000000,0.181818,0.000000,0.151515,0.476600,0.121212,0.653400,0.151515,FALSE
289,E01001848,"Hackney 018C","Hackney",0.351800,-0.03750,51.54630,0.850400,0.166667,0.022700,0.000000,0.111500,0.227273,0.202400,0.181818,0.021700,0.151515,0.439900,0.121212,0.602400,0.151515,FALSE
290,E01000372,"Bexley 010C","Bexley",0.351400,0.17000,51.47460,0.961300,0.166667,0.265300,0.000000,0.062800,0.227273,0.070800,0.181818,0.252700,0.151515,0.484500,0.121212,0.442500,0.151515,FALSE
291,E01033146,"Enfield 025F","Enfield",0.351400,-0.04480,51.62530,0.950000,0.166667,0.075600,0.000000,0.095200,0.227273,0.065900,0.181818,0.144600,0.151515,0.428100,0.121212,0.565300,0.151515,FALSE
292,E01003550,"Newham 001D","Newham",0.351300,0.02260,51.55450,0.904200,0.166667,0.022300,0.000000,0.132000,0.227273,0.217600,0.181818,0.046100,0.151515,0.529400,0.121212,0.395100,0.151515,FALSE
293,E01001183,"Croydon 011E","Croydon",0.351200,-0.11490,51.39550,0.895000,0.166667,0.140400,0.000000,0.115700,0.227273,0.227900,0.181818,0.152900,0.151515,0.479900,0.121212,0.349700,0.151515,FALSE
294,E01002782,"Islington 012E","Islington",0.351200,-0.08260,51.55100,0.804500,0.166667,0.035300,0.000000,0.139800,0.227273,0.222300,0.181818,0.039600,0.151515,0.447800,0.121212,0.558800,0.151515,FALSE
295,E01003539,"Newham 029B","Newham",0.351200,0.04360,51.52270,0.945100,0.166667,0.081900,0.000000,0.086700,0.227273,0.087700,0.181818,0.232100,0.151515,0.512100,0.121212,0.401300,0.151515,FALSE
296,E01003567,"Newham 007D","Newham",0.351100,0.03380,51.54620,0.868500,0.166667,0.050200,0.000000,0.169900,0.227273,0.181000,0.181818,0.093100,0.151515,0.398100,0.121212,0.478100,0.151515,FALSE
297,E01001054,"Croydon 030C","Croydon",0.351000,-0.02350,51.35340,0.908000,0.166667,0.412900,0.000000,0.063100,0.227273,0.091800,0.181818,0.232400,0.151515,0.447300,0.121212,0.522700,0.151515,FALSE
298,E01001683,"Greenwich 017B","Greenwich",0.350900,0.08400,51.47940,0.937500,0.166667,0.106800,0.000000,0.098800,0.227273,0.181700,0.181818,0.179200,0.151515,0.513600,0.121212,0.328500,0.151515,FALSE
299,E01004743,"Westminster 021B","Westminster",0.350800,-0.12990,51.49400,0.756200,0.166667,0.039400,0.000000,0.264100,0.227273,0.285200,0.181818,0.049300,0.151515,0.498400,0.121212,0.297000,0.151515,FALSE
300,E01003086,"Lambeth 031D","Lambeth",0.350700,-0.10080,51.42430,0.914300,0.166667,0.140300,0.000000,0.091600,0.227273,0.060000,0.181818,0.181600,0.151515,0.565100,0.121212,0.466100,0.151515,FALSE
301,E01004458,"Waltham Forest 012C","Waltham Forest",0.350700,-0.03020,51.58920,0.899800,0.166667,0.051100,0.000000,0.135000,0.227273,0.174200,0.181818,0.057800,0.151515,0.590600,0.121212,0.383000,0.151515,FALSE
302,E01004652,"Westminster 017A","Westminster",0.350700,-0.18800,51.51640,0.579900,0.166667,0.019100,0.000000,0.296600,0.227273,0.476100,0.181818,0.017200,0.151515,0.532800,0.121212,0.217200,0.151515,FALSE
303,E01002003,"Haringey 023C","Haringey",0.350600,-0.10500,51.58780,0.696100,0.166667,0.018800,0.000000,0.098800,0.227273,0.293300,0.181818,0.010500,0.151515,0.605700,0.121212,0.553100,0.151515,FALSE
304,E01003607,"Newham 026D","Newham",0.350600,0.02580,51.52760,0.798600,0.166667,0.045500,0.000000,0.129500,0.227273,0.261800,0.181818,0.035100,0.151515,0.549800,0.121212,0.452000,0.151515,FALSE
305,E01034034,"Hounslow 014F","",0.350600,-0.33330,51.47530,0.856500,0.166667,0.096300,0.000000,0.146100,0.227273,0.136900,0.181818,0.082500,0.151515,0.693900,0.121212,0.000000,0.151515,FALSE
306,E01003290,"Lewisham 041E","Lewisham",0.350400,-0.00710,51.45450,0.861900,0.166667,0.081000,0.000000,0.113800,0.227273,0.000000,0.181818,0.000000,0.151515,0.619900,0.121212,0.698100,0.151515,FALSE
307,E01003571,"Newham 008D","Newham",0.350100,0.02990,51.54320,0.891300,0.166667,0.052900,0.000000,0.186900,0.227273,0.151900,0.181818,0.192400,0.151515,0.329300,0.121212,0.411500,0.151515,FALSE
308,E01001775,"Hackney 024C","Hackney",0.350000,-0.06540,51.53450,0.884600,0.166667,0.040800,0.000000,0.110500,0.227273,0.117800,0.181818,0.028700,0.151515,0.511000,0.121212,0.592500,0.151515,FALSE
309,E01001076,"Croydon 036A","Croydon",0.349600,-0.01010,51.34060,0.931700,0.166667,0.527300,0.000000,0.041000,0.227273,0.039500,0.181818,0.252100,0.151515,0.472700,0.121212,0.543500,0.151515,FALSE
310,E01004328,"Waltham Forest 028B","Waltham Forest",0.349600,0.00780,51.55680,0.914500,0.166667,0.049300,0.000000,0.155800,0.227273,0.095300,0.181818,0.125100,0.151515,0.617500,0.121212,0.334000,0.151515,FALSE
311,E01001758,"Hackney 016D","Hackney",0.349500,-0.05970,51.55010,0.757000,0.166667,0.010300,0.000000,0.180500,0.227273,0.143600,0.181818,0.009400,0.151515,0.543900,0.121212,0.586300,0.151515,FALSE
312,E01004584,"Wandsworth 003D","Wandsworth",0.349400,-0.17000,51.47590,0.899800,0.166667,0.060300,0.000000,0.288700,0.227273,0.000000,0.181818,0.000000,0.151515,0.506700,0.121212,0.477700,0.151515,FALSE
313,E01000995,"Croydon 009B","Croydon",0.349300,-0.11520,51.40010,0.942100,0.166667,0.173200,0.000000,0.102500,0.227273,0.029300,0.181818,0.371700,0.151515,0.520200,0.121212,0.292400,0.151515,FALSE
314,E01002830,"Kensington and Chelsea 004B","Kensington and Chelsea",0.349300,-0.20430,51.51820,0.843300,0.166667,0.023900,0.000000,0.199400,0.227273,0.084300,0.181818,0.036900,0.151515,0.513300,0.121212,0.530000,0.151515,FALSE
315,E01003246,"Lewisham 002A","Lewisham",0.349200,-0.03610,51.48280,0.926400,0.166667,0.046800,0.000000,0.085500,0.227273,0.000000,0.181818,0.000000,0.151515,0.672000,0.121212,0.619600,0.151515,FALSE
316,E01004060,"Southwark 008E","Southwark",0.349100,-0.04250,51.49260,0.828900,0.166667,0.023200,0.000000,0.173400,0.227273,0.131500,0.181818,0.029700,0.151515,0.586100,0.121212,0.475800,0.151515,FALSE
317,E01004421,"Waltham Forest 018B","Waltham Forest",0.349100,-0.02310,51.57260,0.906300,0.166667,0.067300,0.000000,0.145400,0.227273,0.139800,0.181818,0.177300,0.151515,0.474600,0.121212,0.364300,0.151515,FALSE
318,E01004517,"Wandsworth 037A","Wandsworth",0.349100,-0.14120,51.42390,0.918900,0.166667,0.123100,0.000000,0.128200,0.227273,0.096100,0.181818,0.214100,0.151515,0.711400,0.121212,0.202100,0.151515,FALSE
319,E01002017,"Haringey 028B","Haringey",0.349000,-0.11900,51.58270,0.881300,0.166667,0.083600,0.000000,0.098400,0.227273,0.188500,0.181818,0.084400,0.151515,0.669700,0.121212,0.340000,0.151515,FALSE
320,E01003081,"Lambeth 028C","Lambeth",0.349000,-0.10520,51.43090,0.849500,0.166667,0.181800,0.000000,0.077300,0.227273,0.147800,0.181818,0.127200,0.151515,0.636400,0.121212,0.439400,0.151515,FALSE
321,E01003169,"Lambeth 025D","Lambeth",0.349000,-0.10680,51.44490,0.836100,0.166667,0.137800,0.000000,0.106100,0.227273,0.145900,0.181818,0.120500,0.151515,0.737800,0.121212,0.338600,0.151515,FALSE
322,E01001283,"Ealing 016C","Ealing",0.348900,-0.34050,51.52550,0.881100,0.166667,0.103700,0.000000,0.058200,0.227273,0.216700,0.181818,0.047800,0.151515,0.416100,0.121212,0.605600,0.151515,FALSE
323,E01032789,"Hammersmith and Fulham 023E","Hammersmith and Fulham",0.348900,-0.18290,51.47340,0.917700,0.166667,0.008900,0.000000,0.346000,0.227273,0.000000,0.181818,0.000000,0.151515,0.671800,0.121212,0.237100,0.151515,FALSE
324,E01002070,"Haringey 024C","Haringey",0.348700,-0.08140,51.58490,0.866900,0.166667,0.032700,0.000000,0.135400,0.227273,0.112700,0.181818,0.068200,0.151515,0.698000,0.121212,0.382900,0.151515,FALSE
325,E01003575,"Newham 005B","Newham",0.348700,0.05830,51.54730,0.960600,0.166667,0.066000,0.000000,0.096500,0.227273,0.079300,0.181818,0.238000,0.151515,0.406700,0.121212,0.441200,0.151515,FALSE
326,E01004245,"Tower Hamlets 018A","Tower Hamlets",0.348700,-0.00170,51.51470,0.889800,0.166667,0.035600,0.000000,0.118900,0.227273,0.000000,0.181818,0.000000,0.151515,0.545400,0.121212,0.707800,0.151515,FALSE
327,E01000030,"Barking and Dagenham 001D","Barking and Dagenham",0.348500,0.13790,51.58350,0.945800,0.166667,0.123900,0.000000,0.076500,0.227273,0.047400,0.181818,0.124000,0.151515,0.481200,0.121212,0.578800,0.151515,FALSE
328,E01003569,"Newham 017B","Newham",0.348500,0.03240,51.53700,0.799600,0.166667,0.015900,0.000000,0.202700,0.227273,0.209500,0.181818,0.037000,0.151515,0.525900,0.121212,0.407200,0.151515,FALSE
329,E01003187,"Lambeth 007E","Lambeth",0.348400,-0.10850,51.47460,0.891300,0.166667,0.055800,0.000000,0.140500,0.227273,0.000000,0.181818,0.000000,0.151515,0.715000,0.121212,0.536100,0.151515,FALSE
330,E01003961,"Southwark 012B","Southwark",0.348400,-0.08620,51.49080,0.816600,0.166667,0.067100,0.000000,0.148000,0.227273,0.178400,0.181818,0.071000,0.151515,0.406000,0.121212,0.569600,0.151515,FALSE
331,E01001245,"Ealing 024F","Ealing",0.348300,-0.24860,51.50600,0.886000,0.166667,0.069500,0.000000,0.169000,0.227273,0.108800,0.181818,0.147300,0.151515,0.728300,0.121212,0.210300,0.151515,FALSE
332,E01000102,"Barking and Dagenham 007G","Barking and Dagenham",0.348200,0.13310,51.55730,0.941100,0.166667,0.083400,0.000000,0.060100,0.227273,0.048200,0.181818,0.075000,0.151515,0.491800,0.121212,0.646400,0.151515,FALSE
333,E01001845,"Hackney 022E","Hackney",0.348200,-0.03930,51.54270,0.895200,0.166667,0.034900,0.000000,0.123300,0.227273,0.000000,0.181818,0.000000,0.151515,0.434900,0.121212,0.780400,0.151515,FALSE
334,E01004425,"Waltham Forest 022C","Waltham Forest",0.348200,-0.02930,51.57060,0.919000,0.166667,0.080000,0.000000,0.128500,0.227273,0.027700,0.181818,0.127200,0.151515,0.696300,0.121212,0.377100,0.151515,FALSE
335,E01002854,"Kensington and Chelsea 001C","Kensington and Chelsea",0.348100,-0.20470,51.52250,0.851500,0.166667,0.017700,0.000000,0.073300,0.227273,0.183800,0.181818,0.012100,0.151515,0.414200,0.121212,0.686800,0.151515,FALSE
336,E01004587,"Wandsworth 009D","Wandsworth",0.348000,-0.15260,51.46280,0.888100,0.166667,0.067000,0.000000,0.145100,0.227273,0.136900,0.181818,0.171800,0.151515,0.834400,0.121212,0.098500,0.151515,FALSE
337,E01035671,"Tower Hamlets 012F","",0.348000,-0.01630,51.52050,0.865800,0.166667,0.013000,0.000000,0.306800,0.227273,0.000000,0.181818,0.000000,0.151515,0.670000,0.121212,0.000000,0.151515,FALSE
338,E01001244,"Ealing 024E","Ealing",0.347900,-0.25550,51.50730,0.867400,0.166667,0.035100,0.000000,0.112000,0.227273,0.254800,0.181818,0.044800,0.151515,0.497100,0.121212,0.425500,0.151515,FALSE
339,E01004400,"Waltham Forest 009C","Waltham Forest",0.347700,-0.03360,51.59720,0.935200,0.166667,0.082900,0.000000,0.094200,0.227273,0.096900,0.181818,0.109000,0.151515,0.585600,0.121212,0.431200,0.151515,FALSE
340,E01000661,"Bromley 026A","Bromley",0.347300,0.03850,51.38420,0.938400,0.166667,0.538600,0.000000,0.025000,0.227273,0.039100,0.181818,0.189000,0.151515,0.526400,0.121212,0.565500,0.151515,FALSE
341,E01033866,"Lambeth 004J","",0.347300,-0.12850,51.48070,0.699800,0.166667,0.004800,0.000000,0.235000,0.227273,0.227800,0.181818,0.005600,0.151515,0.679200,0.121212,0.000000,0.151515,FALSE
342,E01002845,"Kensington and Chelsea 019B","Kensington and Chelsea",0.347200,-0.17430,51.48380,0.846800,0.166667,0.074700,0.000000,0.142800,0.227273,0.337100,0.181818,0.099800,0.151515,0.427300,0.121212,0.299800,0.151515,FALSE
343,E01004341,"Waltham Forest 027F","Waltham Forest",0.347200,0.00570,51.55890,0.910400,0.166667,0.035800,0.000000,0.110500,0.227273,0.169700,0.181818,0.055000,0.151515,0.484900,0.121212,0.477900,0.151515,FALSE
344,E01001796,"Hackney 011E","Hackney",0.347100,-0.04640,51.55380,0.853600,0.166667,0.052600,0.000000,0.138300,0.227273,0.079000,0.181818,0.044700,0.151515,0.732800,0.121212,0.418600,0.151515,FALSE
345,E01002908,"Kensington and Chelsea 003D","Kensington and Chelsea",0.347100,-0.22430,51.52100,0.926200,0.166667,0.063000,0.000000,0.124200,0.227273,0.118700,0.181818,0.115900,0.151515,0.541500,0.121212,0.394400,0.151515,FALSE
346,E01003267,"Lewisham 031D","Lewisham",0.347100,0.03390,51.42650,0.951300,0.166667,0.366400,0.000000,0.045100,0.227273,0.011200,0.181818,0.252500,0.151515,0.481300,0.121212,0.526000,0.151515,FALSE
347,E01034029,"Ealing 019G","",0.347100,-0.31520,51.51230,0.802600,0.166667,0.024000,0.000000,0.144600,0.227273,0.259900,0.181818,0.020700,0.151515,0.639000,0.121212,0.000000,0.151515,FALSE
348,E01002095,"Haringey 006D","Haringey",0.347000,-0.07700,51.60030,0.892000,0.166667,0.043400,0.000000,0.047500,0.227273,0.098800,0.181818,0.035200,0.151515,0.460600,0.121212,0.715200,0.151515,FALSE
349,E01003318,"Lewisham 020B","Lewisham",0.347000,-0.02220,51.44310,0.761700,0.166667,0.122200,0.000000,0.049900,0.227273,0.211100,0.181818,0.025700,0.151515,0.475000,0.121212,0.718300,0.151515,FALSE
350,E01004041,"Southwark 013D","Southwark",0.347000,-0.06970,51.48740,0.862800,0.166667,0.083000,0.000000,0.182900,0.227273,0.061800,0.181818,0.156000,0.151515,0.543300,0.121212,0.402100,0.151515,FALSE
351,E01001755,"Hackney 025D","Hackney",0.346900,-0.08010,51.53400,0.859500,0.166667,0.026800,0.000000,0.141600,0.227273,0.050400,0.181818,0.040500,0.151515,0.531800,0.121212,0.605400,0.151515,FALSE
352,E01002038,"Haringey 037B","Haringey",0.346900,-0.06640,51.60140,0.843500,0.166667,0.033100,0.000000,0.111000,0.227273,0.110900,0.181818,0.039500,0.151515,0.391000,0.121212,0.710100,0.151515,FALSE
353,E01001746,"Hackney 016B","Hackney",0.346800,-0.06580,51.55270,0.882400,0.166667,0.034800,0.000000,0.296400,0.227273,0.000000,0.181818,0.000000,0.151515,0.431900,0.121212,0.528300,0.151515,FALSE
354,E01002064,"Haringey 036C","Haringey",0.346700,-0.11130,51.57060,0.785500,0.166667,0.024600,0.000000,0.136200,0.227273,0.183600,0.181818,0.041200,0.151515,0.625000,0.121212,0.458200,0.151515,FALSE
355,E01003989,"Southwark 018C","Southwark",0.346700,-0.06430,51.48410,0.897600,0.166667,0.084400,0.000000,0.078800,0.227273,0.154500,0.181818,0.089600,0.151515,0.602700,0.121212,0.425600,0.151515,FALSE
356,E01004532,"Wandsworth 032A","Wandsworth",0.346700,-0.15550,51.42850,0.968300,0.166667,0.055200,0.000000,0.137300,0.227273,0.062300,0.181818,0.138000,0.151515,0.728300,0.121212,0.221600,0.151515,FALSE
357,E01002546,"Hillingdon 023D","Hillingdon",0.346600,-0.39760,51.51760,0.965100,0.166667,0.126000,0.000000,0.077600,0.227273,0.047600,0.181818,0.402300,0.151515,0.466500,0.121212,0.277100,0.151515,FALSE
358,E01003126,"Lambeth 008D","Lambeth",0.346600,-0.12350,51.47370,0.709800,0.166667,0.008900,0.000000,0.146500,0.227273,0.290000,0.181818,0.006400,0.151515,0.637700,0.121212,0.422700,0.151515,FALSE
359,E01000105,"Barking and Dagenham 014C","Barking and Dagenham",0.346500,0.15360,51.53980,0.904300,0.166667,0.030400,0.000000,0.090400,0.227273,0.052300,0.181818,0.024100,0.151515,0.498500,0.121212,0.670800,0.151515,FALSE
360,E01000724,"Bromley 019D","Bromley",0.346500,0.11990,51.38840,0.965300,0.166667,0.786700,0.000000,0.034200,0.227273,0.011600,0.181818,0.223900,0.151515,0.492600,0.121212,0.542100,0.151515,FALSE
361,E01004047,"Southwark 027B","Southwark",0.346300,-0.08990,51.46140,0.872400,0.166667,0.050900,0.000000,0.139600,0.227273,0.180700,0.181818,0.078100,0.151515,0.585300,0.121212,0.353400,0.151515,FALSE
362,E01004249,"Tower Hamlets 018D","Tower Hamlets",0.346200,-0.00920,51.51660,0.899800,0.166667,0.024800,0.000000,0.115200,0.227273,0.135900,0.181818,0.019400,0.151515,0.357200,0.121212,0.654300,0.151515,FALSE
363,E01032785,"Tower Hamlets 010E","Tower Hamlets",0.346100,-0.04270,51.52850,0.841100,0.166667,0.048900,0.000000,0.298300,0.227273,0.000000,0.181818,0.000000,0.151515,0.769500,0.121212,0.296000,0.151515,FALSE
364,E01003912,"Southwark 019A","Southwark",0.346000,-0.08030,51.47530,0.878900,0.166667,0.061700,0.000000,0.206200,0.227273,0.060700,0.181818,0.070500,0.151515,0.312100,0.121212,0.614300,0.151515,FALSE
365,E01033710,"Hackney 028E","Hackney",0.346000,-0.04850,51.56430,0.926200,0.166667,0.043000,0.000000,0.230600,0.227273,0.000000,0.181818,0.000000,0.151515,0.701500,0.121212,0.358000,0.151515,FALSE
366,E01034470,"Barking and Dagenham 004G","",0.346000,0.14040,51.56240,0.959700,0.166667,0.067400,0.000000,0.104400,0.227273,0.092700,0.181818,0.161600,0.151515,0.565500,0.121212,0.000000,0.151515,FALSE
367,E01002314,"Havering 004E","Havering",0.345900,0.21290,51.60430,0.932000,0.166667,0.129300,0.000000,0.084300,0.227273,0.059300,0.181818,0.064600,0.151515,0.491000,0.121212,0.602800,0.151515,FALSE
368,E01033487,"Islington 011F","Islington",0.345700,-0.11560,51.55100,0.722300,0.166667,0.016100,0.000000,0.424600,0.227273,0.000000,0.181818,0.000000,0.151515,0.894600,0.121212,0.134800,0.151515,FALSE
369,E01002540,"Hillingdon 020C","Hillingdon",0.345600,-0.39060,51.52890,0.963000,0.166667,0.179000,0.000000,0.068800,0.227273,0.044900,0.181818,0.259700,0.151515,0.495500,0.121212,0.408500,0.151515,FALSE
370,E01000932,"Camden 013D","Camden",0.345500,-0.19410,51.54310,0.717900,0.166667,0.029400,0.000000,0.229600,0.227273,0.246500,0.181818,0.032400,0.151515,0.667000,0.121212,0.284100,0.151515,FALSE
371,E01001486,"Enfield 025C","Enfield",0.345500,-0.04970,51.62340,0.930200,0.166667,0.053300,0.000000,0.102000,0.227273,0.090100,0.181818,0.055200,0.151515,0.390600,0.121212,0.628400,0.151515,FALSE
372,E01000741,"Bromley 005B","Bromley",0.345400,-0.07360,51.41500,0.841800,0.166667,0.020000,0.000000,0.114700,0.227273,0.159300,0.181818,0.012800,0.151515,0.770100,0.121212,0.361800,0.151515,FALSE
373,E01003137,"Lambeth 022B","Lambeth",0.345400,-0.12420,51.44380,0.734000,0.166667,0.129600,0.000000,0.120500,0.227273,0.281500,0.181818,0.073000,0.151515,0.560400,0.121212,0.432500,0.151515,FALSE
374,E01003922,"Southwark 021D","Southwark",0.345400,-0.09570,51.47260,0.748300,0.166667,0.042400,0.000000,0.138600,0.227273,0.223100,0.181818,0.044900,0.151515,0.602500,0.121212,0.454100,0.151515,FALSE
375,E01003346,"Lewisham 026A","Lewisham",0.345300,0.00470,51.43360,0.959200,0.166667,0.250600,0.000000,0.040700,0.227273,0.069200,0.181818,0.180000,0.151515,0.480900,0.121212,0.514800,0.151515,FALSE
376,E01002878,"Kensington and Chelsea 003C","Kensington and Chelsea",0.345200,-0.21380,51.51700,0.820000,0.166667,0.013800,0.000000,0.101600,0.227273,0.247400,0.181818,0.009900,0.151515,0.514300,0.121212,0.505800,0.151515,FALSE
377,E01004011,"Southwark 019B","Southwark",0.345200,-0.07790,51.47780,0.894300,0.166667,0.068600,0.000000,0.159000,0.227273,0.048900,0.181818,0.140600,0.151515,0.496200,0.121212,0.459600,0.151515,FALSE
378,E01000020,"Barking and Dagenham 023B","Barking and Dagenham",0.345100,0.12490,51.55590,0.930400,0.166667,0.093800,0.000000,0.100300,0.227273,0.074400,0.181818,0.107800,0.151515,0.457400,0.121212,0.540600,0.151515,FALSE
379,E01001728,"Hackney 029B","Hackney",0.345100,-0.06260,51.56530,0.898500,0.166667,0.037500,0.000000,0.186300,0.227273,0.090500,0.181818,0.039700,0.151515,0.510400,0.121212,0.453100,0.151515,FALSE
380,E01000017,"Barking and Dagenham 009C","Barking and Dagenham",0.345000,0.14630,51.54910,0.911300,0.166667,0.055900,0.000000,0.093100,0.227273,0.086400,0.181818,0.048100,0.151515,0.493400,0.121212,0.588300,0.151515,FALSE
381,E01001181,"Croydon 015E","Croydon",0.345000,-0.11300,51.38750,0.879300,0.166667,0.083300,0.000000,0.128900,0.227273,0.031900,0.181818,0.091000,0.151515,0.429900,0.121212,0.643500,0.151515,FALSE
382,E01004435,"Waltham Forest 023E","Waltham Forest",0.345000,-0.01390,51.56510,0.887500,0.166667,0.042900,0.000000,0.118300,0.227273,0.180800,0.181818,0.094900,0.151515,0.478800,0.121212,0.428200,0.151515,FALSE
383,E01034215,"Newham 038C","",0.345000,-0.00810,51.54740,0.555500,0.166667,0.012700,0.000000,0.354700,0.227273,0.135400,0.181818,0.010200,0.151515,0.770200,0.121212,0.000000,0.151515,FALSE
384,E01002811,"Islington 001F","Islington",0.344900,-0.11890,51.57150,0.876500,0.166667,0.007400,0.000000,0.146800,0.227273,0.048600,0.181818,0.007100,0.151515,0.555900,0.121212,0.581900,0.151515,FALSE
385,E01003499,"Newham 030A","Newham",0.344900,0.02210,51.52380,0.846700,0.166667,0.045500,0.000000,0.119600,0.227273,0.172400,0.181818,0.045200,0.151515,0.374600,0.121212,0.614000,0.151515,FALSE
386,E01000544,"Brent 034A","Brent",0.344800,-0.19720,51.53030,0.813100,0.166667,0.037400,0.000000,0.211400,0.227273,0.048200,0.181818,0.061900,0.151515,0.553800,0.121212,0.501200,0.151515,FALSE
387,E01001761,"Hackney 016F","Hackney",0.344800,-0.06480,51.54800,0.745200,0.166667,0.016900,0.000000,0.145900,0.227273,0.086500,0.181818,0.013400,0.151515,0.501400,0.121212,0.719100,0.151515,FALSE
388,E01003055,"Lambeth 016D","Lambeth",0.344800,-0.11860,51.46180,0.663000,0.166667,0.017700,0.000000,0.100300,0.227273,0.271800,0.181818,0.010500,0.151515,0.686900,0.121212,0.509500,0.151515,FALSE
389,E01003236,"Lewisham 037A","Lewisham",0.344800,0.01820,51.43010,0.855700,0.166667,0.302000,0.000000,0.081600,0.227273,0.068100,0.181818,0.145500,0.151515,0.540300,0.121212,0.552800,0.151515,FALSE
390,E01003192,"Lewisham 034D","Lewisham",0.344700,-0.01700,51.42040,0.949400,0.166667,0.183800,0.000000,0.014200,0.227273,0.030900,0.181818,0.053600,0.151515,0.468400,0.121212,0.744000,0.151515,FALSE
391,E01003975,"Southwark 004A","Southwark",0.344700,-0.07350,51.49720,0.845900,0.166667,0.044400,0.000000,0.187400,0.227273,0.081500,0.181818,0.054100,0.151515,0.563300,0.121212,0.460600,0.151515,FALSE
392,E01001655,"Greenwich 029C","Greenwich",0.344600,0.04270,51.44460,0.942500,0.166667,0.305400,0.000000,0.030400,0.227273,0.038700,0.181818,0.076800,0.151515,0.529600,0.121212,0.645100,0.151515,FALSE
393,E01002069,"Haringey 024B","Haringey",0.344600,-0.07510,51.58620,0.728300,0.166667,0.021600,0.000000,0.110100,0.227273,0.217200,0.181818,0.017700,0.151515,0.532700,0.121212,0.603500,0.151515,FALSE
394,E01001788,"Hackney 013C","Hackney",0.344500,-0.03780,51.55520,0.958400,0.166667,0.065600,0.000000,0.112200,0.227273,0.051500,0.181818,0.084900,0.151515,0.325900,0.121212,0.643900,0.151515,FALSE
395,E01003916,"Southwark 020B","Southwark",0.344400,-0.08430,51.47840,0.913700,0.166667,0.080000,0.000000,0.137200,0.227273,0.080100,0.181818,0.131100,0.151515,0.594300,0.121212,0.359600,0.151515,FALSE
396,E01033879,"Southwark 015G","",0.344400,-0.08530,51.48600,0.896800,0.166667,0.091800,0.000000,0.201800,0.227273,0.106100,0.181818,0.188000,0.151515,0.405500,0.121212,0.000000,0.151515,FALSE
397,E01001442,"Enfield 002A","Enfield",0.344300,-0.03890,51.67020,0.917300,0.166667,0.042200,0.000000,0.129300,0.227273,0.084300,0.181818,0.044600,0.151515,0.309100,0.121212,0.676100,0.151515,FALSE
398,E01001842,"Hackney 023D","Hackney",0.344300,-0.05310,51.53850,0.830900,0.166667,0.028400,0.000000,0.203800,0.227273,0.000000,0.181818,0.000000,0.151515,0.570300,0.121212,0.596600,0.151515,FALSE
399,E01003501,"Newham 030B","Newham",0.344300,0.01640,51.52200,0.877800,0.166667,0.057100,0.000000,0.127700,0.227273,0.070200,0.181818,0.104400,0.151515,0.477400,0.121212,0.544600,0.151515,FALSE
400,E01000195,"Barnet 013A","Barnet",0.344200,-0.26720,51.63070,0.983700,0.166667,0.134800,0.000000,0.054400,0.227273,0.025300,0.181818,0.285400,0.151515,0.495400,0.121212,0.395700,0.151515,FALSE
401,E01001152,"Croydon 005D","Croydon",0.344200,-0.09950,51.40210,0.886900,0.166667,0.121000,0.000000,0.102700,0.227273,0.043300,0.181818,0.061000,0.151515,0.588200,0.121212,0.558800,0.151515,FALSE
402,E01003630,"Newham 021C","Newham",0.344200,0.01450,51.53330,0.784400,0.166667,0.018600,0.000000,0.155800,0.227273,0.261800,0.181818,0.023700,0.151515,0.495600,0.121212,0.441100,0.151515,FALSE
403,E01003976,"Southwark 036D","Southwark",0.344200,-0.07820,51.49840,0.758000,0.166667,0.058700,0.000000,0.171800,0.227273,0.112300,0.181818,0.042700,0.151515,0.690000,0.121212,0.450700,0.151515,FALSE
404,E01001770,"Hackney 010E","Hackney",0.344100,-0.05900,51.55790,0.806800,0.166667,0.027100,0.000000,0.113600,0.227273,0.226400,0.181818,0.017500,0.151515,0.514900,0.121212,0.512200,0.151515,FALSE
405,E01002602,"Hounslow 027C","Hounslow",0.344100,-0.42240,51.43290,0.972300,0.166667,0.222200,0.000000,0.060700,0.227273,0.023100,0.181818,0.354800,0.151515,0.645100,0.121212,0.212200,0.151515,FALSE
406,E01002807,"Islington 001E","Islington",0.344000,-0.12270,51.56580,0.893100,0.166667,0.033700,0.000000,0.159100,0.227273,0.103500,0.181818,0.059600,0.151515,0.495400,0.121212,0.469100,0.151515,FALSE
407,E01002669,"Hounslow 014B","Hounslow",0.343900,-0.33790,51.46770,0.952600,0.166667,0.096900,0.000000,0.052600,0.227273,0.020100,0.181818,0.065900,0.151515,0.587100,0.121212,0.583300,0.151515,FALSE
408,E01003540,"Newham 029C","Newham",0.343900,0.05910,51.52200,0.894800,0.166667,0.055300,0.000000,0.083700,0.227273,0.115400,0.181818,0.082200,0.151515,0.445000,0.121212,0.583100,0.151515,FALSE
409,E01004420,"Waltham Forest 020C","Waltham Forest",0.343900,-0.01530,51.57430,0.815600,0.166667,0.047300,0.000000,0.114400,0.227273,0.101300,0.181818,0.037400,0.151515,0.504800,0.121212,0.638200,0.151515,FALSE
410,E01004470,"Waltham Forest 013E","Waltham Forest",0.343900,-0.00560,51.58990,0.902400,0.166667,0.026600,0.000000,0.099100,0.227273,0.102100,0.181818,0.025900,0.151515,0.584800,0.121212,0.512200,0.151515,FALSE
411,E01003972,"Southwark 016D","Southwark",0.343800,-0.08840,51.48810,0.877800,0.166667,0.069900,0.000000,0.173500,0.227273,0.046700,0.181818,0.090700,0.151515,0.611600,0.121212,0.407400,0.151515,FALSE
412,E01033922,"Barnet 043B","",0.343800,-0.25290,51.59500,0.849800,0.166667,0.012900,0.000000,0.143700,0.227273,0.162000,0.181818,0.013800,0.151515,0.708300,0.121212,0.000000,0.151515,FALSE
413,E01000106,"Barking and Dagenham 014D","Barking and Dagenham",0.343600,0.15960,51.54040,0.920000,0.166667,0.038500,0.000000,0.086100,0.227273,0.052700,0.181818,0.037700,0.151515,0.456400,0.121212,0.660700,0.151515,FALSE
414,E01001651,"Greenwich 019C","Greenwich",0.343600,0.04170,51.47450,0.944300,0.166667,0.176000,0.000000,0.051800,0.227273,0.025100,0.181818,0.086200,0.151515,0.465900,0.121212,0.662000,0.151515,FALSE
415,E01001509,"Enfield 014C","Enfield",0.343400,-0.03990,51.64610,0.921000,0.166667,0.062000,0.000000,0.104400,0.227273,0.139200,0.181818,0.079700,0.151515,0.420600,0.121212,0.513500,0.151515,FALSE
416,E01003079,"Lambeth 027A","Lambeth",0.343400,-0.10950,51.43550,0.873900,0.166667,0.206400,0.000000,0.064600,0.227273,0.073400,0.181818,0.125700,0.151515,0.672300,0.121212,0.456400,0.151515,FALSE
417,E01000526,"Brent 025D","Brent",0.343300,-0.25160,51.54680,0.928700,0.166667,0.054900,0.000000,0.136200,0.227273,0.047900,0.181818,0.045300,0.151515,0.373800,0.121212,0.638300,0.151515,FALSE
418,E01000626,"Brent 010E","Brent",0.343300,-0.26120,51.56110,0.932200,0.166667,0.072300,0.000000,0.063600,0.227273,0.049800,0.181818,0.054700,0.151515,0.462900,0.121212,0.660300,0.151515,FALSE
419,E01001633,"Greenwich 009B","Greenwich",0.343300,0.07540,51.48400,0.888200,0.166667,0.053600,0.000000,0.152600,0.227273,0.063800,0.181818,0.076300,0.151515,0.495600,0.121212,0.510500,0.151515,FALSE
420,E01000524,"Brent 031B","Brent",0.343200,-0.25000,51.53730,0.793400,0.166667,0.034500,0.000000,0.132200,0.227273,0.101300,0.181818,0.035600,0.151515,0.456200,0.121212,0.672000,0.151515,FALSE
421,E01001646,"Greenwich 019A","Greenwich",0.343100,0.04700,51.47280,0.898300,0.166667,0.167900,0.000000,0.114600,0.227273,0.118700,0.181818,0.141300,0.151515,0.570700,0.121212,0.364200,0.151515,FALSE
422,E01001750,"Hackney 031D","Hackney",0.343100,-0.07910,51.53980,0.831300,0.166667,0.017500,0.000000,0.125000,0.227273,0.061700,0.181818,0.020100,0.151515,0.659300,0.121212,0.540700,0.151515,FALSE
423,E01003075,"Lambeth 009C","Lambeth",0.343100,-0.09940,51.47040,0.844200,0.166667,0.047700,0.000000,0.189300,0.227273,0.000000,0.181818,0.000000,0.151515,0.507000,0.121212,0.646000,0.151515,FALSE
424,E01002843,"Kensington and Chelsea 021D","Kensington and Chelsea",0.343000,-0.18340,51.48010,0.847600,0.166667,0.032900,0.000000,0.165600,0.227273,0.130200,0.181818,0.045800,0.151515,0.293800,0.121212,0.646100,0.151515,FALSE
425,E01001576,"Greenwich 003B","Greenwich",0.342900,0.10960,51.49560,0.949400,0.166667,0.063000,0.000000,0.071500,0.227273,0.095100,0.181818,0.053000,0.151515,0.435600,0.121212,0.596200,0.151515,FALSE
426,E01001734,"Hackney 017B","Hackney",0.342900,-0.05160,51.55100,0.725800,0.166667,0.032900,0.000000,0.117200,0.227273,0.149900,0.181818,0.012300,0.151515,0.691100,0.121212,0.544200,0.151515,FALSE
427,E01002800,"Islington 018E","Islington",0.342900,-0.09620,51.53530,0.868000,0.166667,0.049500,0.000000,0.183600,0.227273,0.000000,0.181818,0.000000,0.151515,0.556900,0.121212,0.587100,0.151515,FALSE
428,E01003491,"Newham 022A","Newham",0.342900,0.03540,51.53300,0.783300,0.166667,0.016200,0.000000,0.164700,0.227273,0.351400,0.181818,0.028600,0.151515,0.335400,0.121212,0.435900,0.151515,FALSE
429,E01004669,"Westminster 024B","Westminster",0.342900,-0.14110,51.48620,0.895900,0.166667,0.037900,0.000000,0.206000,0.227273,0.067800,0.181818,0.072800,0.151515,0.444800,0.121212,0.458600,0.151515,FALSE
430,E01002036,"Haringey 002A","Haringey",0.342800,-0.06240,51.60600,0.897400,0.166667,0.040200,0.000000,0.093100,0.227273,0.000000,0.181818,0.000000,0.151515,0.363200,0.121212,0.845300,0.151515,FALSE
431,E01004327,"Waltham Forest 028A","Waltham Forest",0.342800,0.01390,51.55840,0.939800,0.166667,0.044500,0.000000,0.110500,0.227273,0.056400,0.181818,0.157800,0.151515,0.490200,0.121212,0.445100,0.151515,FALSE
432,E01004563,"Wandsworth 039E","Wandsworth",0.342800,-0.15240,51.47320,0.874200,0.166667,0.069200,0.000000,0.121000,0.227273,0.071900,0.181818,0.103600,0.151515,0.596400,0.121212,0.452500,0.151515,FALSE
433,E01001977,"Haringey 011B","Haringey",0.342600,-0.07790,51.59640,0.894300,0.166667,0.039900,0.000000,0.144300,0.227273,0.000000,0.181818,0.000000,0.151515,0.548400,0.121212,0.622300,0.151515,FALSE
434,E01000596,"Brent 021A","Brent",0.342500,-0.26210,51.54760,0.932200,0.166667,0.068800,0.000000,0.083300,0.227273,0.065000,0.181818,0.054000,0.151515,0.336500,0.121212,0.708900,0.151515,FALSE
435,E01003576,"Newham 002A","Newham",0.342500,0.06130,51.55480,0.882900,0.166667,0.046700,0.000000,0.103200,0.227273,0.158100,0.181818,0.064200,0.151515,0.384100,0.121212,0.573300,0.151515,FALSE
436,E01034180,"Greenwich 035G","",0.342500,-0.01480,51.48090,0.796000,0.166667,0.017600,0.000000,0.254700,0.227273,0.213400,0.181818,0.022500,0.151515,0.477000,0.121212,0.000000,0.151515,FALSE
437,E01000078,"Barking and Dagenham 007B","Barking and Dagenham",0.342400,0.13240,51.55250,0.916000,0.166667,0.094200,0.000000,0.092500,0.227273,0.098100,0.181818,0.089100,0.151515,0.477900,0.121212,0.524600,0.151515,FALSE
438,E01001147,"Croydon 005A","Croydon",0.342400,-0.10370,51.40590,0.931200,0.166667,0.150300,0.000000,0.075800,0.227273,0.077700,0.181818,0.086600,0.151515,0.542800,0.121212,0.508000,0.151515,FALSE
439,E01001918,"Hammersmith and Fulham 018D","Hammersmith and Fulham",0.342400,-0.21800,51.47850,0.910400,0.166667,0.081500,0.000000,0.124200,0.227273,0.241700,0.181818,0.119600,0.151515,0.663700,0.121212,0.131800,0.151515,FALSE
440,E01003151,"Lambeth 026E","Lambeth",0.342400,-0.12370,51.43540,0.803900,0.166667,0.148100,0.000000,0.124800,0.227273,0.112000,0.181818,0.115100,0.151515,0.557300,0.121212,0.493200,0.151515,FALSE
441,E01004623,"Wandsworth 019E","Wandsworth",0.342300,-0.18410,51.44860,0.932500,0.166667,0.108600,0.000000,0.101900,0.227273,0.108100,0.181818,0.206700,0.151515,0.799700,0.121212,0.104500,0.151515,FALSE
442,E01004058,"Southwark 008C","Southwark",0.342100,-0.03490,51.49480,0.962300,0.166667,0.060500,0.000000,0.104900,0.227273,0.033700,0.181818,0.201900,0.151515,0.877500,0.121212,0.097600,0.151515,FALSE
443,E01000041,"Barking and Dagenham 017A","Barking and Dagenham",0.342000,0.11680,51.53830,0.936500,0.166667,0.050400,0.000000,0.103500,0.227273,0.072500,0.181818,0.073400,0.151515,0.520700,0.121212,0.494700,0.151515,FALSE
444,E01004311,"Tower Hamlets 006A","Tower Hamlets",0.341900,-0.07410,51.52830,0.788200,0.166667,0.021400,0.000000,0.187400,0.227273,0.078600,0.181818,0.018800,0.151515,0.513900,0.121212,0.584300,0.151515,FALSE
445,E01003065,"Lambeth 031A","Lambeth",0.341800,-0.09290,51.43000,0.946400,0.166667,0.131100,0.000000,0.117300,0.227273,0.000000,0.181818,0.000000,0.151515,0.521700,0.121212,0.621500,0.151515,FALSE
446,E01001429,"Enfield 030D","Enfield",0.341700,-0.05840,51.62360,0.777800,0.166667,0.014100,0.000000,0.081800,0.227273,0.269300,0.181818,0.007400,0.151515,0.300000,0.121212,0.706700,0.151515,FALSE
447,E01004423,"Waltham Forest 020D","Waltham Forest",0.341700,-0.01750,51.57170,0.893300,0.166667,0.045200,0.000000,0.142000,0.227273,0.084400,0.181818,0.058600,0.151515,0.449300,0.121212,0.540000,0.151515,FALSE
448,E01000792,"Bromley 032C","Bromley",0.341500,0.11650,51.37360,0.956900,0.166667,0.900300,0.000000,0.040400,0.227273,0.025500,0.181818,0.426000,0.151515,0.524100,0.121212,0.265100,0.151515,FALSE
449,E01001729,"Hackney 019A","Hackney",0.341500,-0.04400,51.54890,0.800500,0.166667,0.013100,0.000000,0.133700,0.227273,0.119000,0.181818,0.008100,0.151515,0.481600,0.121212,0.636500,0.151515,FALSE
450,E01002716,"Islington 014A","Islington",0.341500,-0.08740,51.54530,0.778200,0.166667,0.033000,0.000000,0.148700,0.227273,0.189200,0.181818,0.029800,0.151515,0.500600,0.121212,0.517500,0.151515,FALSE
451,E01004083,"Sutton 019A","Sutton",0.341500,-0.12920,51.35150,0.962000,0.166667,0.238800,0.000000,0.051900,0.227273,0.011200,0.181818,0.101500,0.151515,0.411800,0.121212,0.673600,0.151515,FALSE
452,E01004721,"Westminster 004D","Westminster",0.341500,-0.20850,51.52770,0.859100,0.166667,0.049600,0.000000,0.137200,0.227273,0.129500,0.181818,0.073900,0.151515,0.367200,0.121212,0.580200,0.151515,FALSE
453,E01000429,"Bexley 008B","Bexley",0.341400,0.18760,51.47750,0.955300,0.166667,0.334100,0.000000,0.046400,0.227273,0.005600,0.181818,0.084300,0.151515,0.496400,0.121212,0.644700,0.151515,FALSE
454,E01003924,"Southwark 021E","Southwark",0.341400,-0.09660,51.47950,0.797400,0.166667,0.076600,0.000000,0.226900,0.227273,0.048700,0.181818,0.093900,0.151515,0.525700,0.121212,0.462800,0.151515,FALSE
455,E01002790,"Islington 016D","Islington",0.341300,-0.10490,51.54340,0.733500,0.166667,0.015500,0.000000,0.154000,0.227273,0.174200,0.181818,0.014000,0.151515,0.438900,0.121212,0.640600,0.151515,FALSE
456,E01003128,"Lambeth 008E","Lambeth",0.341200,-0.12560,51.47140,0.745000,0.166667,0.012100,0.000000,0.162900,0.227273,0.158100,0.181818,0.009800,0.151515,0.593300,0.121212,0.513900,0.151515,FALSE
457,E01003615,"Newham 039A","Newham",0.341200,0.00330,51.55070,0.880200,0.166667,0.036200,0.000000,0.135700,0.227273,0.152000,0.181818,0.079500,0.151515,0.521500,0.121212,0.401000,0.151515,FALSE
458,E01004591,"Wandsworth 005C","Wandsworth",0.341200,-0.15400,51.46550,0.869300,0.166667,0.071800,0.000000,0.131900,0.227273,0.154100,0.181818,0.087500,0.151515,0.705100,0.121212,0.261500,0.151515,FALSE
459,E01000019,"Barking and Dagenham 023A","Barking and Dagenham",0.341100,0.12080,51.55840,0.953800,0.166667,0.071000,0.000000,0.077300,0.227273,0.067800,0.181818,0.095000,0.151515,0.509500,0.121212,0.501900,0.151515,FALSE
460,E01032775,"Tower Hamlets 031F","Tower Hamlets",0.341000,-0.02640,51.49300,0.927500,0.166667,0.055500,0.000000,0.297000,0.227273,0.000000,0.181818,0.000000,0.151515,0.839700,0.121212,0.113100,0.151515,FALSE
461,E01001070,"Croydon 040B","Croydon",0.340900,-0.11190,51.31830,0.987900,0.166667,0.459100,0.000000,0.028200,0.227273,0.023900,0.181818,0.497200,0.151515,0.500300,0.121212,0.194500,0.151515,FALSE
462,E01003336,"Lewisham 010A","Lewisham",0.340800,-0.04210,51.46040,0.897900,0.166667,0.033300,0.000000,0.104300,0.227273,0.107500,0.181818,0.039100,0.151515,0.535900,0.121212,0.508500,0.151515,FALSE
463,E01004570,"Wandsworth 023B","Wandsworth",0.340800,-0.24260,51.44660,0.901000,0.166667,0.170300,0.000000,0.141000,0.227273,0.041100,0.181818,0.139500,0.151515,0.446200,0.121212,0.501100,0.151515,FALSE
464,E01004399,"Waltham Forest 009B","Waltham Forest",0.340500,-0.03250,51.60430,0.972600,0.166667,0.136200,0.000000,0.019600,0.227273,0.014900,0.181818,0.075600,0.151515,0.412900,0.121212,0.724100,0.151515,FALSE
465,E01002100,"Haringey 008B","Haringey",0.340400,-0.09430,51.60030,0.888300,0.166667,0.076400,0.000000,0.108300,0.227273,0.102300,0.181818,0.109900,0.151515,0.462100,0.121212,0.504900,0.151515,FALSE
466,E01033946,"Haringey 020H","",0.340400,-0.11580,51.58890,0.893900,0.166667,0.058400,0.000000,0.145800,0.227273,0.000000,0.181818,0.000000,0.151515,0.880400,0.121212,0.000000,0.151515,FALSE
467,E01001579,"Greenwich 003E","Greenwich",0.340300,0.10640,51.49160,0.951300,0.166667,0.068900,0.000000,0.058400,0.227273,0.082000,0.181818,0.057600,0.151515,0.486600,0.121212,0.566900,0.151515,FALSE
468,E01035497,"Wandsworth 038B","",0.340300,-0.13170,51.48130,0.935600,0.166667,0.017600,0.000000,0.215000,0.227273,0.000000,0.181818,0.000000,0.151515,0.692400,0.121212,0.000000,0.151515,FALSE
469,E01000730,"Bromley 014B","Bromley",0.340200,0.10610,51.39730,0.896700,0.166667,0.721900,0.000000,0.040900,0.227273,0.034700,0.181818,0.118800,0.151515,0.505300,0.121212,0.633100,0.151515,FALSE
470,E01002720,"Islington 016C","Islington",0.340200,-0.09210,51.54330,0.783500,0.166667,0.039700,0.000000,0.180100,0.227273,0.077200,0.181818,0.035800,0.151515,0.474700,0.121212,0.604900,0.151515,FALSE
471,E01003176,"Lambeth 016E","Lambeth",0.340200,-0.11630,51.45720,0.658100,0.166667,0.041200,0.000000,0.130400,0.227273,0.253900,0.181818,0.021700,0.151515,0.589500,0.121212,0.527500,0.151515,FALSE
472,E01003177,"Lambeth 020D","Lambeth",0.340200,-0.11470,51.45410,0.799600,0.166667,0.063500,0.000000,0.141800,0.227273,0.092200,0.181818,0.066000,0.151515,0.751900,0.121212,0.374900,0.151515,FALSE
473,E01033711,"Hackney 032C","Hackney",0.340200,-0.08730,51.52830,0.718800,0.166667,0.016700,0.000000,0.213900,0.227273,0.289300,0.181818,0.018600,0.151515,0.561300,0.121212,0.318900,0.151515,FALSE
474,E01000073,"Barking and Dagenham 012B","Barking and Dagenham",0.340100,0.11410,51.54680,0.954600,0.166667,0.078100,0.000000,0.055200,0.227273,0.050000,0.181818,0.079600,0.151515,0.485200,0.121212,0.584300,0.151515,FALSE
475,E01001795,"Hackney 011D","Hackney",0.340100,-0.05070,51.55400,0.840600,0.166667,0.054800,0.000000,0.110600,0.227273,0.103900,0.181818,0.034500,0.151515,0.659400,0.121212,0.467100,0.151515,FALSE
476,E01001835,"Hackney 014F","Hackney",0.340100,-0.07750,51.55330,0.830200,0.166667,0.037200,0.000000,0.144900,0.227273,0.122800,0.181818,0.064400,0.151515,0.747600,0.121212,0.304500,0.151515,FALSE
477,E01002606,"Hounslow 026C","Hounslow",0.340100,-0.38810,51.43700,0.943800,0.166667,0.275100,0.000000,0.069300,0.227273,0.023100,0.181818,0.155500,0.151515,0.429900,0.121212,0.575300,0.151515,FALSE
478,E01034175,"Greenwich 034G","",0.340100,0.02830,51.45770,0.906500,0.166667,0.201900,0.000000,0.041100,0.227273,0.045400,0.181818,0.060500,0.151515,0.913600,0.121212,0.000000,0.151515,FALSE
479,E01035690,"Tower Hamlets 023E","",0.340000,-0.03460,51.51270,0.720800,0.166667,0.022800,0.000000,0.265900,0.227273,0.109400,0.181818,0.015600,0.151515,0.706700,0.121212,0.000000,0.151515,FALSE
480,E01002055,"Haringey 029D","Haringey",0.339900,-0.07190,51.57680,0.791000,0.166667,0.022800,0.000000,0.189300,0.227273,0.194200,0.181818,0.038900,0.151515,0.600400,0.121212,0.337000,0.151515,FALSE
481,E01004013,"Southwark 019D","Southwark",0.339900,-0.07570,51.47550,0.819900,0.166667,0.048500,0.000000,0.138400,0.227273,0.046400,0.181818,0.039800,0.151515,0.559900,0.121212,0.590400,0.151515,FALSE
482,E01001838,"Hackney 019E","Hackney",0.339800,-0.05120,51.54250,0.799300,0.166667,0.031000,0.000000,0.227100,0.227273,0.000000,0.181818,0.000000,0.151515,0.394800,0.121212,0.706700,0.151515,FALSE
483,E01001410,"Enfield 005C","Enfield",0.339700,-0.06130,51.66530,0.965000,0.166667,0.086700,0.000000,0.118100,0.227273,0.000000,0.181818,0.000000,0.151515,0.388900,0.121212,0.692500,0.151515,FALSE
484,E01002605,"Hounslow 026B","Hounslow",0.339700,-0.37980,51.43730,0.947800,0.166667,0.265700,0.000000,0.061100,0.227273,0.059500,0.181818,0.140800,0.151515,0.536300,0.121212,0.466500,0.151515,FALSE
485,E01003185,"Lambeth 007C","Lambeth",0.339700,-0.11440,51.47530,0.813500,0.166667,0.044600,0.000000,0.188900,0.227273,0.052700,0.181818,0.055300,0.151515,0.685800,0.121212,0.396900,0.151515,FALSE
486,E01004064,"Southwark 026D","Southwark",0.339700,-0.06330,51.46460,0.806300,0.166667,0.048900,0.000000,0.101600,0.227273,0.162000,0.181818,0.030800,0.151515,0.656400,0.121212,0.452300,0.151515,FALSE
487,E01000556,"Brent 015D","Brent",0.339600,-0.21520,51.55540,0.781700,0.166667,0.053600,0.000000,0.184000,0.227273,0.123400,0.181818,0.021600,0.151515,0.574400,0.121212,0.476000,0.151515,FALSE
488,E01001821,"Hackney 024F","Hackney",0.339600,-0.06520,51.53680,0.869400,0.166667,0.045500,0.000000,0.169200,0.227273,0.000000,0.181818,0.000000,0.151515,0.470500,0.121212,0.655100,0.151515,FALSE
489,E01033086,"Haringey 020F","Haringey",0.339600,-0.11920,51.58950,0.929900,0.166667,0.073000,0.000000,0.169900,0.227273,0.000000,0.181818,0.000000,0.151515,0.411600,0.121212,0.634100,0.151515,FALSE
490,E01004382,"Waltham Forest 008C","Waltham Forest",0.339500,-0.00650,51.60600,0.938600,0.166667,0.030000,0.000000,0.127200,0.227273,0.000000,0.181818,0.000000,0.151515,0.542500,0.121212,0.583400,0.151515,FALSE
491,E01004615,"Wandsworth 034B","Wandsworth",0.339500,-0.17890,51.43160,0.881900,0.166667,0.057700,0.000000,0.079100,0.227273,0.138500,0.181818,0.045500,0.151515,0.478100,0.121212,0.558000,0.151515,FALSE
492,E01032579,"Lewisham 039E","Lewisham",0.339500,-0.02190,51.47760,0.796600,0.166667,0.023400,0.000000,0.106300,0.227273,0.125000,0.181818,0.018600,0.151515,0.619200,0.121212,0.540800,0.151515,FALSE
493,E01002066,"Haringey 025A","Haringey",0.339400,-0.06860,51.58790,0.667900,0.166667,0.032900,0.000000,0.113800,0.227273,0.196200,0.181818,0.016700,0.151515,0.439100,0.121212,0.731400,0.151515,FALSE
494,E01004185,"Sutton 001D","Sutton",0.339400,-0.16050,51.38660,0.954100,0.166667,0.200400,0.000000,0.044400,0.227273,0.000000,0.181818,0.000000,0.151515,0.584900,0.121212,0.655700,0.151515,FALSE
495,E01004630,"Wandsworth 022B","Wandsworth",0.339400,-0.21670,51.44820,0.913300,0.166667,0.050600,0.000000,0.133000,0.227273,0.098100,0.181818,0.066500,0.151515,0.511700,0.121212,0.442300,0.151515,FALSE
496,E01003600,"Newham 021B","Newham",0.339200,0.02110,51.53140,0.796800,0.166667,0.013800,0.000000,0.126800,0.227273,0.223500,0.181818,0.010900,0.151515,0.474600,0.121212,0.513400,0.151515,FALSE
